time;roll;pitch;yaw;alt
 1.84468E+01; 3.21751E-01; 1.05021E-01; 5.59893E+00; 0.00000E+00
 1.84668E+01; 3.21751E-01; 1.05021E-01; 5.59893E+00; 4.69820E+02
 1.84868E+01; 3.21751E-01; 1.05021E-01; 5.59893E+00; 4.69820E+02
 1.85068E+01; 3.21751E-01; 1.05021E-01; 5.59893E+00; 4.69783E+02
 1.85268E+01; 3.21751E-01; 1.05021E-01; 5.59893E+00; 4.69783E+02
 1.85468E+01; 3.21751E-01; 1.05021E-01; 5.59893E+00; 4.69745E+02
 1.85668E+01; 3.21751E-01; 1.05021E-01; 5.59893E+00; 4.69745E+02
 1.85868E+01; 3.21751E-01; 1.05021E-01; 5.59893E+00; 4.69674E+02
 1.86068E+01; 3.21751E-01; 1.05021E-01; 5.59893E+00; 4.69674E+02
 1.86268E+01; 3.21751E-01; 1.05021E-01; 5.59893E+00; 4.69588E+02
 1.86468E+01; 3.21751E-01; 1.05021E-01; 5.59893E+00; 4.69588E+02
 1.86668E+01; 3.21751E-01; 1.05021E-01; 5.59893E+00; 4.69538E+02
 1.86868E+01; 3.21751E-01; 1.05021E-01; 5.59893E+00; 4.69538E+02
 1.87068E+01; 3.21751E-01; 1.05021E-01; 5.59893E+00; 4.69542E+02
 1.87268E+01; 3.21751E-01; 1.05021E-01; 5.59893E+00; 4.69542E+02
 1.87468E+01; 3.21751E-01; 1.05021E-01; 5.59893E+00; 4.69580E+02
 1.87668E+01; 3.21751E-01; 1.05021E-01; 5.59893E+00; 4.69580E+02
 1.87868E+01; 3.21751E-01; 1.05021E-01; 5.59893E+00; 4.69600E+02
 1.88068E+01; 3.21751E-01; 1.05021E-01; 5.59893E+00; 4.69600E+02
 1.88268E+01; 3.21751E-01; 1.05021E-01; 5.59893E+00; 4.69607E+02
 1.88468E+01; 3.21751E-01; 1.05021E-01; 5.59893E+00; 4.69607E+02
 1.88668E+01; 3.21751E-01; 1.05021E-01; 5.59893E+00; 4.69577E+02
 1.88868E+01; 3.21751E-01; 1.05021E-01; 5.59893E+00; 4.69577E+02
 1.89068E+01; 3.21751E-01; 1.05021E-01; 5.59893E+00; 4.69535E+02
 1.89268E+01; 3.21751E-01; 1.05021E-01; 5.59893E+00; 4.69535E+02
 1.89468E+01; 3.21751E-01; 1.05021E-01; 5.59893E+00; 4.69481E+02
 1.89668E+01; 3.21751E-01; 1.05021E-01; 5.59893E+00; 4.69481E+02
 1.89868E+01; 3.21751E-01; 1.05021E-01; 5.59893E+00; 4.69475E+02
 1.90068E+01; 3.21751E-01; 1.05021E-01; 5.59893E+00; 4.69475E+02
 1.90268E+01; 3.21751E-01; 1.05021E-01; 5.59893E+00; 4.69520E+02
 1.90468E+01; 3.21751E-01; 1.05021E-01; 5.59893E+00; 4.69520E+02
 1.90668E+01; 3.21751E-01; 1.05021E-01; 5.59893E+00; 4.69570E+02
 1.90868E+01; 3.21751E-01; 1.05021E-01; 5.59893E+00; 4.69570E+02
 1.91068E+01; 3.21751E-01; 1.05021E-01; 5.59893E+00; 4.69585E+02
 1.91268E+01; 3.21751E-01; 1.05021E-01; 5.59893E+00; 4.69585E+02
 1.91468E+01; 3.21751E-01; 1.05021E-01; 5.59893E+00; 4.69566E+02
 1.91668E+01; 3.21751E-01; 1.05021E-01; 5.59893E+00; 4.69566E+02
 1.91868E+01; 3.21751E-01; 1.05021E-01; 5.59893E+00; 4.69578E+02
 1.92068E+01; 3.21751E-01; 1.05021E-01; 5.59893E+00; 4.69578E+02
 1.92268E+01; 3.21751E-01; 1.05021E-01; 5.59893E+00; 4.69620E+02
 1.92468E+01; 3.21751E-01; 1.05021E-01; 5.59893E+00; 4.69620E+02
 1.92668E+01; 3.21751E-01; 1.05021E-01; 5.59893E+00; 4.69668E+02
 1.92868E+01; 3.21751E-01; 1.05021E-01; 5.59893E+00; 4.69668E+02
 1.93068E+01; 3.21751E-01; 1.05021E-01; 5.59893E+00; 4.69695E+02
 1.93268E+01; 3.21751E-01; 1.05021E-01; 5.59893E+00; 4.69695E+02
 1.93468E+01; 3.21751E-01; 1.05021E-01; 5.59893E+00; 4.69703E+02
 1.93668E+01; 3.21751E-01; 1.05021E-01; 5.59893E+00; 4.69703E+02
 1.93868E+01; 3.21751E-01; 1.05021E-01; 5.59893E+00; 4.69709E+02
 1.94068E+01; 3.21751E-01; 1.05021E-01; 5.59893E+00; 4.69709E+02
 1.94268E+01; 3.21751E-01; 1.05021E-01; 5.59893E+00; 4.69714E+02
 1.94468E+01; 3.21751E-01; 1.05021E-01; 5.59893E+00; 4.69714E+02
 1.94668E+01; 3.21751E-01; 1.05021E-01; 5.59893E+00; 4.69714E+02
 1.94868E+01; 3.21751E-01; 1.05021E-01; 5.59893E+00; 4.69714E+02
 1.95068E+01; 3.21751E-01; 1.05021E-01; 5.59893E+00; 4.69707E+02
 1.95268E+01; 3.21751E-01; 1.05021E-01; 5.59893E+00; 4.69707E+02
 1.95468E+01; 3.21751E-01; 1.05021E-01; 5.59893E+00; 4.69694E+02
 1.95668E+01; 3.21751E-01; 1.05021E-01; 5.59893E+00; 4.69694E+02
 1.95868E+01; 3.21751E-01; 1.05021E-01; 5.59893E+00; 4.69684E+02
 1.96068E+01; 3.21751E-01; 1.05021E-01; 5.59893E+00; 4.69684E+02
 1.96268E+01; 3.21751E-01; 1.05021E-01; 5.59893E+00; 4.69678E+02
 1.96468E+01; 3.21751E-01; 1.05021E-01; 5.59893E+00; 4.69678E+02
 1.96668E+01; 3.21751E-01; 1.05021E-01; 5.59893E+00; 4.69706E+02
 1.96868E+01; 3.21751E-01; 1.05021E-01; 5.59893E+00; 4.69706E+02
 1.97068E+01; 3.21751E-01; 1.05021E-01; 5.59893E+00; 4.69799E+02
 1.97268E+01; 3.21751E-01; 1.05021E-01; 5.59893E+00; 4.69799E+02
 1.97468E+01; 3.21751E-01; 1.05021E-01; 5.59893E+00; 4.69956E+02
 1.97668E+01; 3.21751E-01; 1.05021E-01; 5.59893E+00; 4.69956E+02
 1.97868E+01; 3.21751E-01; 1.05021E-01; 5.59893E+00; 4.70028E+02
 1.98068E+01; 3.21751E-01; 1.05021E-01; 5.59893E+00; 4.70028E+02
 1.98268E+01; 3.21751E-01; 1.05021E-01; 5.59893E+00; 4.70016E+02
 1.98468E+01; 3.21751E-01; 1.05021E-01; 5.59893E+00; 4.70016E+02
 1.98668E+01; 3.21751E-01; 1.05021E-01; 5.59893E+00; 4.69978E+02
 1.98868E+01; 3.21751E-01; 1.05021E-01; 5.59893E+00; 4.69978E+02
 1.99068E+01; 3.21751E-01; 1.05021E-01; 5.59893E+00; 4.69969E+02
 1.99268E+01; 3.21751E-01; 1.05021E-01; 5.59893E+00; 4.69969E+02
 1.99468E+01; 3.21751E-01; 1.05021E-01; 5.59893E+00; 4.69988E+02
 1.99668E+01; 3.21751E-01; 1.05021E-01; 5.59893E+00; 4.69988E+02
 1.99868E+01; 3.21751E-01; 1.05021E-01; 5.59893E+00; 4.69984E+02
 2.00068E+01; 3.21751E-01; 1.05021E-01; 5.59893E+00; 4.69984E+02
 2.00268E+01; 3.21751E-01; 1.05021E-01; 5.59893E+00; 4.69957E+02
 2.00468E+01; 3.21751E-01; 1.05021E-01; 5.59893E+00; 4.69957E+02
 2.00668E+01; 3.21751E-01; 1.05021E-01; 5.59893E+00; 4.69904E+02
 2.00868E+01; 3.21751E-01; 1.05021E-01; 5.59893E+00; 4.69904E+02
 2.01068E+01; 3.21751E-01; 1.05021E-01; 5.59893E+00; 4.69825E+02
 2.01268E+01; 3.21751E-01; 1.05021E-01; 5.59893E+00; 4.69825E+02
 2.01468E+01; 3.21751E-01; 1.05021E-01; 5.59893E+00; 4.69717E+02
 2.01668E+01; 3.21751E-01; 1.05021E-01; 5.59893E+00; 4.69717E+02
 2.01868E+01; 3.21751E-01; 1.05021E-01; 5.59893E+00; 4.69657E+02
 2.02068E+01; 3.21751E-01; 1.05021E-01; 5.59893E+00; 4.69657E+02
 2.02268E+01; 3.21751E-01; 1.05021E-01; 5.59893E+00; 4.69643E+02
 2.02468E+01; 3.21751E-01; 1.05021E-01; 5.59893E+00; 4.69643E+02
 2.02668E+01; 3.21751E-01; 1.05021E-01; 5.59893E+00; 4.69646E+02
 2.02868E+01; 3.21751E-01; 0.00000E+00; 5.31429E+00; 4.69646E+02
 2.03068E+01; 3.21751E-01; 1.05021E-01; 5.59893E+00; 4.69636E+02
 2.03268E+01; 3.21751E-01; 1.05021E-01; 5.59893E+00; 4.69636E+02
 2.03468E+01; 3.21751E-01; 1.05021E-01; 5.59893E+00; 4.69614E+02
 2.03668E+01; 3.21751E-01; 1.05021E-01; 5.59893E+00; 4.69614E+02
 2.03868E+01; 3.21751E-01; 1.05021E-01; 5.59893E+00; 4.69586E+02
 2.04068E+01; 3.21751E-01; 1.05021E-01; 5.59893E+00; 4.69586E+02
 2.04268E+01; 3.21751E-01; 1.05021E-01; 5.59893E+00; 4.69553E+02
 2.04468E+01; 3.21751E-01; 1.05021E-01; 5.59893E+00; 4.69553E+02
 2.04668E+01; 3.21751E-01; 1.05021E-01; 5.59893E+00; 4.69516E+02
 2.04868E+01; 3.21751E-01; 1.05021E-01; 5.59893E+00; 4.69516E+02
 2.05068E+01; 3.21751E-01; 1.05021E-01; 5.59893E+00; 4.69477E+02
 2.05268E+01; 3.21751E-01; 1.05021E-01; 5.59893E+00; 4.69477E+02
 2.05468E+01; 3.21751E-01; 1.05021E-01; 5.59893E+00; 4.69436E+02
 2.05668E+01; 3.21751E-01; 1.05021E-01; 5.59893E+00; 4.69436E+02
 2.05868E+01; 3.21751E-01; 1.05021E-01; 5.59893E+00; 4.69446E+02
 2.06068E+01; 3.21751E-01; 1.05021E-01; 5.59893E+00; 4.69446E+02
 2.06268E+01; 3.21751E-01; 1.05021E-01; 5.59893E+00; 4.69508E+02
 2.06468E+01; 3.21751E-01; 1.05021E-01; 5.59893E+00; 4.69508E+02
 2.06668E+01; 3.21751E-01; 1.05021E-01; 5.59893E+00; 4.69580E+02
 2.06868E+01; 3.21751E-01; 1.05021E-01; 5.59893E+00; 4.69580E+02
 2.07068E+01; 3.21751E-01; 0.00000E+00; 5.31429E+00; 4.69622E+02
 2.07268E+01; 3.21751E-01; 1.05021E-01; 5.59893E+00; 4.69622E+02
 2.07468E+01; 3.21751E-01; 1.05021E-01; 5.59893E+00; 4.69636E+02
 2.07668E+01; 3.21751E-01; 1.05021E-01; 5.59893E+00; 4.69636E+02
 2.07868E+01; 3.21751E-01; 1.05021E-01; 5.59893E+00; 4.69651E+02
 2.08068E+01; 3.21751E-01; 1.05021E-01; 5.59893E+00; 4.69651E+02
 2.08268E+01; 3.21751E-01; 1.05021E-01; 5.59893E+00; 4.69668E+02
 2.08468E+01; 3.21751E-01; 1.05021E-01; 5.59893E+00; 4.69668E+02
 2.08668E+01; 3.21751E-01; 1.05021E-01; 5.59893E+00; 4.69695E+02
 2.08868E+01; 3.21751E-01; 1.05021E-01; 5.59893E+00; 4.69695E+02
 2.09068E+01; 3.21751E-01; 1.05021E-01; 5.59893E+00; 4.69740E+02
 2.09268E+01; 3.21751E-01; 1.05021E-01; 5.59893E+00; 4.69740E+02
 2.09468E+01; 3.21751E-01; 1.05021E-01; 5.59893E+00; 4.69801E+02
 2.09668E+01; 3.21751E-01; 0.00000E+00; 5.31429E+00; 4.69801E+02
 2.09868E+01; 3.21751E-01; 0.00000E+00; 5.31429E+00; 4.69803E+02
 2.10068E+01; 3.21751E-01; 1.05021E-01; 5.59893E+00; 4.69803E+02
 2.10268E+01; 3.21751E-01; 1.05021E-01; 5.59893E+00; 4.69745E+02
 2.10468E+01; 3.21751E-01; 1.05021E-01; 5.59893E+00; 4.69745E+02
 2.10668E+01; 3.21751E-01; 1.05021E-01; 5.59893E+00; 4.69659E+02
 2.10868E+01; 3.21751E-01; 1.05021E-01; 5.59893E+00; 4.69659E+02
 2.11068E+01; 3.21751E-01; 1.05021E-01; 5.59893E+00; 4.69577E+02
 2.11268E+01; 3.21751E-01; 1.05021E-01; 5.59893E+00; 4.69577E+02
 2.11468E+01; 3.21751E-01; 1.05021E-01; 5.59893E+00; 4.69499E+02
 2.11668E+01; 3.21751E-01; 1.05021E-01; 5.59893E+00; 4.69499E+02
 2.11868E+01; 3.21751E-01; 1.05021E-01; 5.59893E+00; 4.69453E+02
 2.12068E+01; 3.21751E-01; 1.05021E-01; 5.59893E+00; 4.69453E+02
 2.12268E+01; 3.21751E-01; 1.05021E-01; 5.59893E+00; 4.69440E+02
 2.12468E+01; 3.21751E-01; 1.05021E-01; 5.59893E+00; 4.69440E+02
 2.12668E+01; 3.21751E-01; 1.05021E-01; 5.59893E+00; 4.69437E+02
 2.12868E+01; 3.21751E-01; 1.05021E-01; 5.59893E+00; 4.69437E+02
 2.13068E+01; 3.21751E-01; 1.05021E-01; 5.59893E+00; 4.69425E+02
 2.13268E+01; 3.21751E-01; 1.05021E-01; 5.59893E+00; 4.69425E+02
 2.13468E+01; 3.21751E-01; 1.05021E-01; 5.59893E+00; 4.69405E+02
 2.13668E+01; 3.21751E-01; 1.05021E-01; 5.59893E+00; 4.69405E+02
 2.13868E+01; 3.21751E-01; 1.05021E-01; 5.59893E+00; 4.69376E+02
 2.14068E+01; 3.21751E-01; 1.05021E-01; 5.59893E+00; 4.69376E+02
 2.14268E+01; 3.21751E-01; 1.05021E-01; 5.59893E+00; 4.69337E+02
 2.14468E+01; 3.21751E-01; 1.05021E-01; 5.59893E+00; 4.69337E+02
 2.14668E+01; 3.21751E-01; 1.05021E-01; 5.59893E+00; 4.69318E+02
 2.14868E+01; 3.21751E-01; 1.05021E-01; 5.59893E+00; 4.69318E+02
 2.15068E+01; 3.21751E-01; 1.05021E-01; 5.59893E+00; 4.69349E+02
 2.15268E+01; 3.21751E-01; 1.05021E-01; 5.59893E+00; 4.69349E+02
 2.15468E+01; 3.21751E-01; 1.05021E-01; 5.59893E+00; 4.69426E+02
 2.15668E+01; 3.21751E-01; 1.05021E-01; 5.59893E+00; 4.69426E+02
 2.15868E+01; 3.21751E-01; 1.05021E-01; 5.59893E+00; 4.69424E+02
 2.16068E+01; 3.21751E-01; 1.05021E-01; 5.59893E+00; 4.69424E+02
 2.16268E+01; 3.21751E-01; 1.05021E-01; 5.59893E+00; 4.69344E+02
 2.16468E+01; 3.21751E-01; 1.05021E-01; 5.59893E+00; 4.69344E+02
 2.16668E+01; 3.21751E-01; 1.05021E-01; 5.59893E+00; 4.69253E+02
 2.16868E+01; 3.21751E-01; 1.05021E-01; 5.59893E+00; 4.69253E+02
 2.17068E+01; 3.21751E-01; 1.05021E-01; 5.59893E+00; 4.69215E+02
 2.17268E+01; 3.21751E-01; 1.05021E-01; 5.59893E+00; 4.69215E+02
 2.17468E+01; 3.21751E-01; 1.05021E-01; 5.59893E+00; 4.69230E+02
 2.17668E+01; 3.21751E-01; 0.00000E+00; 5.31429E+00; 4.69230E+02
 2.17868E+01; 3.21751E-01; 1.05021E-01; 5.59893E+00; 4.69235E+02
 2.18068E+01; 3.21751E-01; 1.05021E-01; 5.59893E+00; 4.69235E+02
 2.18268E+01; 3.21751E-01; 1.05021E-01; 5.59893E+00; 4.69232E+02
 2.18468E+01; 3.21751E-01; 1.05021E-01; 5.59893E+00; 4.69232E+02
 2.18668E+01; 3.21751E-01; 1.05021E-01; 5.59893E+00; 4.69233E+02
 2.18868E+01; 3.21751E-01; 1.05021E-01; 5.59893E+00; 4.69233E+02
 2.19068E+01; 3.21751E-01; 1.05021E-01; 5.59893E+00; 4.69250E+02
 2.19268E+01; 3.21751E-01; 1.05021E-01; 5.59893E+00; 4.69250E+02
 2.19468E+01; 3.21751E-01; 1.05021E-01; 5.59893E+00; 4.69284E+02
 2.19668E+01; 3.21751E-01; 1.05021E-01; 5.59893E+00; 4.69284E+02
 2.19868E+01; 3.21751E-01; 1.05021E-01; 5.59893E+00; 4.69337E+02
 2.20068E+01; 3.21751E-01; 1.05021E-01; 5.59893E+00; 4.69337E+02
 2.20268E+01; 3.21751E-01; 1.05021E-01; 5.59893E+00; 4.69407E+02
 2.20468E+01; 3.21751E-01; 1.05021E-01; 5.59893E+00; 4.69407E+02
 2.20668E+01; 3.21751E-01; 1.05021E-01; 5.59893E+00; 4.69448E+02
 2.20868E+01; 3.21751E-01; 1.05021E-01; 5.59893E+00; 4.69448E+02
 2.21068E+01; 3.21751E-01; 1.05021E-01; 5.59893E+00; 4.69417E+02
 2.21268E+01; 3.21751E-01; 1.05021E-01; 5.59893E+00; 4.69417E+02
 2.21468E+01; 3.21751E-01; 1.05021E-01; 5.59893E+00; 4.69314E+02
 2.21668E+01; 3.21751E-01; 1.05021E-01; 5.59893E+00; 4.69314E+02
 2.21868E+01; 3.21751E-01; 1.05021E-01; 5.59893E+00; 4.69271E+02
 2.22068E+01; 3.21751E-01; 1.05021E-01; 5.59893E+00; 4.69271E+02
 2.22268E+01; 3.21751E-01; 1.05021E-01; 5.59893E+00; 4.69289E+02
 2.22468E+01; 3.21751E-01; 1.05021E-01; 5.59893E+00; 4.69289E+02
 2.22668E+01; 3.21751E-01; 1.05021E-01; 5.59893E+00; 4.69306E+02
 2.22868E+01; 3.21751E-01; 1.05021E-01; 5.59893E+00; 4.69306E+02
 2.23068E+01; 3.21751E-01; 1.05021E-01; 5.59893E+00; 4.69266E+02
 2.23268E+01; 3.21751E-01; 1.05021E-01; 5.59893E+00; 4.69266E+02
 2.23468E+01; 3.21751E-01; 1.05021E-01; 5.59893E+00; 4.69171E+02
 2.23668E+01; 3.21751E-01; 1.05021E-01; 5.59893E+00; 4.69171E+02
 2.23868E+01; 3.21751E-01; 1.05021E-01; 5.59893E+00; 4.69117E+02
 2.24068E+01; 3.21751E-01; 1.05021E-01; 5.59893E+00; 4.69117E+02
 2.24268E+01; 3.21751E-01; 1.05021E-01; 5.59893E+00; 4.69104E+02
 2.24468E+01; 3.21751E-01; 1.05021E-01; 5.59893E+00; 4.69104E+02
 2.24668E+01; 3.21751E-01; 1.05021E-01; 5.59893E+00; 4.69128E+02
 2.24868E+01; 3.21751E-01; 1.05021E-01; 5.59893E+00; 4.69128E+02
 2.25068E+01; 3.21751E-01; 1.05021E-01; 5.59893E+00; 4.69180E+02
 2.25268E+01; 3.21751E-01; 1.05021E-01; 5.59893E+00; 4.69180E+02
 2.25468E+01; 3.21751E-01; 1.05021E-01; 5.59893E+00; 4.69262E+02
 2.25668E+01; 3.21751E-01; 1.05021E-01; 5.59893E+00; 4.69262E+02
 2.25868E+01; 3.21751E-01; 1.05021E-01; 5.59893E+00; 4.69317E+02
 2.26068E+01; 3.21751E-01; 1.05021E-01; 5.59893E+00; 4.69317E+02
 2.26268E+01; 3.21751E-01; 1.05021E-01; 5.59893E+00; 4.69347E+02
 2.26468E+01; 3.21751E-01; 1.05021E-01; 5.59893E+00; 4.69347E+02
 2.26668E+01; 3.21751E-01; 1.05021E-01; 5.59893E+00; 4.69354E+02
 2.26868E+01; 3.21751E-01; 1.05021E-01; 5.59893E+00; 4.69354E+02
 2.27068E+01; 3.21751E-01; 1.05021E-01; 5.59893E+00; 4.69343E+02
 2.27268E+01; 3.21751E-01; 1.05021E-01; 5.59893E+00; 4.69343E+02
 2.27468E+01; 3.21751E-01; 1.05021E-01; 5.59893E+00; 4.69315E+02
 2.27668E+01; 3.21751E-01; 1.05021E-01; 5.59893E+00; 4.69315E+02
 2.27868E+01; 3.21751E-01; 1.05021E-01; 5.59893E+00; 4.69314E+02
 2.28068E+01; 3.21751E-01; 1.05021E-01; 5.59893E+00; 4.69314E+02
 2.28268E+01; 3.21751E-01; 1.05021E-01; 5.59893E+00; 4.69343E+02
 2.28468E+01; 3.21751E-01; 1.05021E-01; 5.59893E+00; 4.69343E+02
 2.28668E+01; 3.21751E-01; 1.05021E-01; 5.59893E+00; 4.69384E+02
 2.28868E+01; 3.21751E-01; 1.05021E-01; 5.59893E+00; 4.69384E+02
 2.29068E+01; 3.21751E-01; 1.05021E-01; 5.59893E+00; 4.69424E+02
 2.29268E+01; 3.21751E-01; 1.05021E-01; 5.59893E+00; 4.69424E+02
 2.29468E+01; 3.21751E-01; 1.05021E-01; 5.59893E+00; 4.69463E+02
 2.29668E+01; 3.21751E-01; 1.05021E-01; 5.59893E+00; 4.69463E+02
 2.29868E+01; 3.21751E-01; 1.05021E-01; 5.59893E+00; 4.69474E+02
 2.30068E+01; 3.21751E-01; 1.05021E-01; 5.59893E+00; 4.69474E+02
 2.30268E+01; 3.21751E-01; 1.05021E-01; 5.59893E+00; 4.69459E+02
 2.30468E+01; 3.21751E-01; 1.05021E-01; 5.59893E+00; 4.69459E+02
 2.30668E+01; 3.21751E-01; 1.05021E-01; 5.59893E+00; 4.69451E+02
 2.30868E+01; 3.21751E-01; 1.05021E-01; 5.59893E+00; 4.69451E+02
 2.31068E+01; 3.21751E-01; 1.05021E-01; 5.59893E+00; 4.69483E+02
 2.31268E+01; 3.21751E-01; 1.05021E-01; 5.59893E+00; 4.69483E+02
 2.31468E+01; 3.21751E-01; 1.05021E-01; 5.59893E+00; 4.69554E+02
 2.31668E+01; 3.21751E-01; 1.05021E-01; 5.59893E+00; 4.69554E+02
 2.31868E+01; 3.21751E-01; 1.05021E-01; 5.59893E+00; 4.69600E+02
 2.32068E+01; 3.21751E-01; 1.05021E-01; 5.59893E+00; 4.69600E+02
 2.32268E+01; 3.21751E-01; 1.05021E-01; 5.59893E+00; 4.69623E+02
 2.32468E+01; 3.21751E-01; 1.05021E-01; 5.59893E+00; 4.69623E+02
 2.32668E+01; 3.21751E-01; 0.00000E+00; 5.31429E+00; 4.69622E+02
 2.32868E+01; 3.21751E-01; 1.05021E-01; 5.59893E+00; 4.69622E+02
 2.33068E+01; 3.21751E-01; 1.05021E-01; 5.59893E+00; 4.69598E+02
 2.33268E+01; 2.91457E-01; 0.00000E+00; 5.39630E+00; 4.69598E+02
 2.33468E+01; 3.21751E-01; 1.05021E-01; 5.59893E+00; 4.69554E+02
 2.33668E+01; 3.21751E-01; 1.05021E-01; 5.59893E+00; 4.69554E+02
 2.33868E+01; 3.21751E-01; 1.05021E-01; 5.59893E+00; 4.69601E+02
 2.34068E+01; 3.21751E-01; 0.00000E+00; 5.31429E+00; 4.69601E+02
 2.34268E+01; 3.21751E-01; 1.05021E-01; 5.59893E+00; 4.69740E+02
 2.34468E+01; 3.21751E-01; 1.05021E-01; 5.59893E+00; 4.69740E+02
 2.34668E+01; 3.21751E-01; 1.05021E-01; 5.59893E+00; 4.69899E+02
 2.34868E+01; 3.21751E-01; 1.05021E-01; 5.59893E+00; 4.69899E+02
 2.35068E+01; 3.21751E-01; 1.05021E-01; 5.59893E+00; 4.70010E+02
 2.35268E+01; 3.21751E-01; 1.05021E-01; 5.59893E+00; 4.70010E+02
 2.35468E+01; 3.21751E-01; 1.05021E-01; 5.59893E+00; 4.70074E+02
 2.35668E+01; 3.21751E-01; 1.05021E-01; 5.59893E+00; 4.70074E+02
 2.35868E+01; 3.21751E-01; 1.05021E-01; 5.59893E+00; 4.70088E+02
 2.36068E+01; 3.21751E-01; 1.05021E-01; 5.59893E+00; 4.70088E+02
 2.36268E+01; 3.21751E-01; 1.05021E-01; 5.59893E+00; 4.70054E+02
 2.36468E+01; 3.21751E-01; 1.05021E-01; 5.59893E+00; 4.70054E+02
 2.36668E+01; 3.21751E-01; 1.05021E-01; 5.59893E+00; 4.70010E+02
 2.36868E+01; 2.91457E-01; 0.00000E+00; 5.39630E+00; 4.70010E+02
 2.37068E+01; 3.21751E-01; 1.05021E-01; 5.59893E+00; 4.69995E+02
 2.37268E+01; 3.21751E-01; 1.05021E-01; 5.59893E+00; 4.69995E+02
 2.37468E+01; 3.21751E-01; 1.05021E-01; 5.59893E+00; 4.70007E+02
 2.37668E+01; 3.21751E-01; 1.05021E-01; 5.59893E+00; 4.70007E+02
 2.37868E+01; 3.21751E-01; 1.05021E-01; 5.59893E+00; 4.69923E+02
 2.38068E+01; 3.21751E-01; 1.05021E-01; 5.59893E+00; 4.69923E+02
 2.38268E+01; 3.21751E-01; 1.05021E-01; 5.59893E+00; 4.69743E+02
 2.38468E+01; 3.21751E-01; 1.05021E-01; 5.59893E+00; 4.69743E+02
 2.38668E+01; 3.21751E-01; 1.05021E-01; 5.59893E+00; 4.69544E+02
 2.38868E+01; 3.21751E-01; 1.05021E-01; 5.59893E+00; 4.69544E+02
 2.39068E+01; 3.21751E-01; 1.05021E-01; 5.59893E+00; 4.69396E+02
 2.39268E+01; 3.21751E-01; 1.05021E-01; 5.59893E+00; 4.69396E+02
 2.39468E+01; 3.21751E-01; 1.05021E-01; 5.59893E+00; 4.69299E+02
 2.39668E+01; 3.21751E-01; 1.05021E-01; 5.59893E+00; 4.69299E+02
 2.39868E+01; 3.21751E-01; 1.05021E-01; 5.59893E+00; 4.69233E+02
 2.40068E+01; 3.21751E-01; 1.05021E-01; 5.59893E+00; 4.69233E+02
 2.40268E+01; 3.21751E-01; 1.05021E-01; 5.59893E+00; 4.69198E+02
 2.40468E+01; 3.21751E-01; 1.05021E-01; 5.59893E+00; 4.69198E+02
 2.40668E+01; 3.21751E-01; 1.05021E-01; 5.59893E+00; 4.69185E+02
 2.40868E+01; 3.21751E-01; 1.05021E-01; 5.59893E+00; 4.69185E+02
 2.41068E+01; 3.21751E-01; 1.05021E-01; 5.59893E+00; 4.69185E+02
 2.41268E+01; 3.21751E-01; 1.05021E-01; 5.59893E+00; 4.69185E+02
 2.41468E+01; 3.21751E-01; 1.05021E-01; 5.59893E+00; 4.69198E+02
 2.41668E+01; 3.21751E-01; 1.05021E-01; 5.59893E+00; 4.69198E+02
 2.41868E+01; 3.21751E-01; 1.05021E-01; 5.59893E+00; 4.69215E+02
 2.42068E+01; 3.21751E-01; 1.05021E-01; 5.59893E+00; 4.69215E+02
 2.42268E+01; 3.21751E-01; 1.05021E-01; 5.59893E+00; 4.69234E+02
 2.42468E+01; 3.21751E-01; 1.05021E-01; 5.59893E+00; 4.69234E+02
 2.42668E+01; 3.21751E-01; 1.05021E-01; 5.59893E+00; 4.69236E+02
 2.42868E+01; 3.21751E-01; 1.05021E-01; 5.59893E+00; 4.69236E+02
 2.43068E+01; 3.21751E-01; 1.05021E-01; 5.59893E+00; 4.69202E+02
 2.43268E+01; 3.21751E-01; 1.05021E-01; 5.59893E+00; 4.69202E+02
 2.43468E+01; 3.21751E-01; 1.05021E-01; 5.59893E+00; 4.69133E+02
 2.43668E+01; 3.21751E-01; 1.05021E-01; 5.59893E+00; 4.69133E+02
 2.43868E+01; 3.21751E-01; 1.05021E-01; 5.59893E+00; 4.69097E+02
 2.44068E+01; 3.21751E-01; 1.05021E-01; 5.59893E+00; 4.69097E+02
 2.44268E+01; 3.21751E-01; 1.05021E-01; 5.59893E+00; 4.69095E+02
 2.44468E+01; 3.21751E-01; 1.05021E-01; 5.59893E+00; 4.69095E+02
 2.44668E+01; 3.21751E-01; 1.05021E-01; 5.59893E+00; 4.69098E+02
 2.44868E+01; 3.21751E-01; 1.05021E-01; 5.59893E+00; 4.69098E+02
 2.45068E+01; 3.21751E-01; 1.05021E-01; 5.59893E+00; 4.69081E+02
 2.45268E+01; 3.21751E-01; 1.05021E-01; 5.59893E+00; 4.69081E+02
 2.45468E+01; 3.21751E-01; 1.05021E-01; 5.59893E+00; 4.69045E+02
 2.45668E+01; 3.21751E-01; 1.05021E-01; 5.59893E+00; 4.69045E+02
 2.45868E+01; 3.21751E-01; 1.05021E-01; 5.59893E+00; 4.69018E+02
 2.46068E+01; 3.21751E-01; 1.05021E-01; 5.59893E+00; 4.69018E+02
 2.46268E+01; 3.21751E-01; 1.05021E-01; 5.59893E+00; 4.69001E+02
 2.46468E+01; 3.21751E-01; 1.05021E-01; 5.59893E+00; 4.69001E+02
 2.46668E+01; 3.21751E-01; 1.05021E-01; 5.59893E+00; 4.68996E+02
 2.46868E+01; 3.21751E-01; 1.05021E-01; 5.59893E+00; 4.68996E+02
 2.47068E+01; 3.21751E-01; 1.05021E-01; 5.59893E+00; 4.69005E+02
 2.47268E+01; 3.21751E-01; 1.05021E-01; 5.59893E+00; 4.69005E+02
 2.47468E+01; 3.21751E-01; 1.05021E-01; 5.59893E+00; 4.69028E+02
 2.47668E+01; 3.21751E-01; 1.05021E-01; 5.59893E+00; 4.69028E+02
 2.47868E+01; 3.21751E-01; 0.00000E+00; 5.31429E+00; 4.69041E+02
 2.48068E+01; 3.21751E-01; 0.00000E+00; 5.31429E+00; 4.69041E+02
 2.48268E+01; 3.21751E-01; 1.05021E-01; 5.59893E+00; 4.69043E+02
 2.48468E+01; 2.91457E-01; 9.54913E-02; 5.66307E+00; 4.69043E+02
 2.48668E+01; 3.21751E-01; 1.05021E-01; 5.59893E+00; 4.69038E+02
 2.48868E+01; 3.21751E-01; 1.05021E-01; 5.59893E+00; 4.69038E+02
 2.49068E+01; 3.21751E-01; 1.05021E-01; 5.59893E+00; 4.69025E+02
 2.49268E+01; 2.91457E-01; 9.54913E-02; 5.66307E+00; 4.69025E+02
 2.49468E+01; 3.21751E-01; 0.00000E+00; 5.31429E+00; 4.69005E+02
 2.49668E+01; 3.21751E-01; 1.05021E-01; 5.59893E+00; 4.69005E+02
 2.49868E+01; 3.21751E-01; 1.05021E-01; 5.59893E+00; 4.68990E+02
 2.50068E+01; 2.91457E-01; 9.54913E-02; 5.66307E+00; 4.68990E+02
 2.50268E+01; 2.91457E-01; 0.00000E+00; 5.39630E+00; 4.68978E+02
 2.50468E+01; 3.21751E-01; 1.05021E-01; 5.59893E+00; 4.68978E+02
 2.50668E+01; 3.21751E-01; 1.05021E-01; 5.59893E+00; 4.68978E+02
 2.50868E+01; 3.21751E-01; 1.05021E-01; 5.59893E+00; 4.68978E+02
 2.51068E+01; 2.91457E-01; 9.54913E-02; 5.66307E+00; 4.68995E+02
 2.51268E+01; 2.91457E-01; 9.54913E-02; 5.66307E+00; 4.68995E+02
 2.51468E+01; 3.21751E-01; 1.05021E-01; 5.59893E+00; 4.69030E+02
 2.51668E+01; 2.91457E-01; 9.54913E-02; 5.66307E+00; 4.69030E+02
 2.51868E+01; 3.21751E-01; 1.05021E-01; 5.59893E+00; 4.69046E+02
 2.52068E+01; 3.21751E-01; 0.00000E+00; 5.31429E+00; 4.69046E+02
 2.52268E+01; 3.21751E-01; 0.00000E+00; 5.31429E+00; 4.69043E+02
 2.52468E+01; 3.21751E-01; 1.05021E-01; 5.59893E+00; 4.69043E+02
 2.52668E+01; 3.21751E-01; 1.05021E-01; 5.59893E+00; 4.69033E+02
 2.52868E+01; 2.91457E-01; 9.54913E-02; 5.66307E+00; 4.69033E+02
 2.53068E+01; 3.21751E-01; 0.00000E+00; 5.31429E+00; 4.69027E+02
 2.53268E+01; 3.21751E-01; 1.05021E-01; 5.59893E+00; 4.69027E+02
 2.53468E+01; 3.21751E-01; 1.05021E-01; 5.59893E+00; 4.69026E+02
 2.53668E+01; 3.21751E-01; 1.05021E-01; 5.59893E+00; 4.69026E+02
 2.53868E+01; 3.21751E-01; 0.00000E+00; 5.31429E+00; 4.69017E+02
 2.54068E+01; 3.21751E-01; 1.05021E-01; 5.59893E+00; 4.69017E+02
 2.54268E+01; 2.91457E-01; 9.54913E-02; 5.66307E+00; 4.68999E+02
 2.54468E+01; 3.21751E-01; 1.05021E-01; 5.59893E+00; 4.68999E+02
 2.54668E+01; 3.21751E-01; 1.05021E-01; 5.59893E+00; 4.68989E+02
 2.54868E+01; 3.21751E-01; 1.05021E-01; 5.59893E+00; 4.68989E+02
 2.55068E+01; 3.58771E-01; 0.00000E+00; 5.23557E+00; 4.69001E+02
 2.55268E+01; 2.91457E-01; 9.54913E-02; 5.66307E+00; 4.69001E+02
 2.55468E+01; 3.21751E-01; 1.05021E-01; 5.59893E+00; 4.69036E+02
 2.55668E+01; 3.21751E-01; 1.05021E-01; 5.59893E+00; 4.69036E+02
 2.55868E+01; 3.21751E-01; 0.00000E+00; 5.31429E+00; 4.69073E+02
 2.56068E+01; 2.91457E-01; 9.54913E-02; 5.66307E+00; 4.69073E+02
 2.56268E+01; 2.91457E-01; 9.54913E-02; 5.66307E+00; 4.69113E+02
 2.56468E+01; 3.21751E-01; 1.05021E-01; 5.59893E+00; 4.69113E+02
 2.56668E+01; 3.21751E-01; 0.00000E+00; 5.31429E+00; 4.69149E+02
 2.56868E+01; 3.21751E-01; 1.05021E-01; 5.59893E+00; 4.69149E+02
 2.57068E+01; 3.21751E-01; 1.05021E-01; 5.59893E+00; 4.69176E+02
 2.57268E+01; 3.21751E-01; 1.05021E-01; 5.59893E+00; 4.69176E+02
 2.57468E+01; 3.21751E-01; 0.00000E+00; 5.31429E+00; 4.69195E+02
 2.57668E+01; 3.21751E-01; 1.05021E-01; 5.59893E+00; 4.69195E+02
 2.57868E+01; 3.21751E-01; 1.05021E-01; 5.59893E+00; 4.69252E+02
 2.58068E+01; 3.21751E-01; 1.05021E-01; 5.59893E+00; 4.69252E+02
 2.58268E+01; 3.21751E-01; 1.05021E-01; 5.59893E+00; 4.69347E+02
 2.58468E+01; 3.21751E-01; 1.05021E-01; 5.59893E+00; 4.69347E+02
 2.58668E+01; 3.21751E-01; 1.05021E-01; 5.59893E+00; 4.69439E+02
 2.58868E+01; 3.21751E-01; 1.05021E-01; 5.59893E+00; 4.69439E+02
 2.59068E+01; 3.21751E-01; 1.05021E-01; 5.59893E+00; 4.69492E+02
 2.59268E+01; 3.21751E-01; 0.00000E+00; 5.31429E+00; 4.69492E+02
 2.59468E+01; 3.21751E-01; 0.00000E+00; 5.31429E+00; 4.69504E+02
 2.59668E+01; 3.21751E-01; 1.05021E-01; 5.59893E+00; 4.69504E+02
 2.59868E+01; 2.91457E-01; 9.54913E-02; 5.66307E+00; 4.69533E+02
 2.60068E+01; 3.21751E-01; 1.05021E-01; 5.59893E+00; 4.69533E+02
 2.60268E+01; 3.80506E-01; 9.25822E-02; 5.43852E+00; 4.69579E+02
 2.60468E+01; 3.21751E-01; 1.05021E-01; 5.59893E+00; 4.69579E+02
 2.60668E+01; 3.21751E-01; 1.05021E-01; 5.59893E+00; 4.69624E+02
 2.60868E+01; 3.21751E-01; 1.05021E-01; 5.59893E+00; 4.69624E+02
 2.61068E+01; 3.21751E-01; 1.05021E-01; 5.59893E+00; 4.69651E+02
 2.61268E+01; 3.21751E-01; 0.00000E+00; 5.31429E+00; 4.69651E+02
 2.61468E+01; 3.21751E-01; 1.05021E-01; 5.59893E+00; 4.69661E+02
 2.61668E+01; 3.21751E-01; 1.05021E-01; 5.59893E+00; 4.69661E+02
 2.61868E+01; 3.21751E-01; 1.05021E-01; 5.59893E+00; 4.69661E+02
 2.62068E+01; 2.91457E-01; 0.00000E+00; 5.39630E+00; 4.69661E+02
 2.62268E+01; 2.91457E-01; 0.00000E+00; 5.39630E+00; 4.69653E+02
 2.62468E+01; 3.21751E-01; 1.05021E-01; 5.59893E+00; 4.69653E+02
 2.62668E+01; 3.21751E-01; 1.05021E-01; 5.59893E+00; 4.69640E+02
 2.62868E+01; 3.21751E-01; 1.05021E-01; 5.59893E+00; 4.69640E+02
 2.63068E+01; 3.21751E-01; 1.05021E-01; 5.59893E+00; 4.69627E+02
 2.63268E+01; 2.91457E-01; 0.00000E+00; 5.39630E+00; 4.69627E+02
 2.63468E+01; 2.91457E-01; 9.54913E-02; 5.66307E+00; 4.69614E+02
 2.63668E+01; 2.91457E-01; 9.54913E-02; 5.66307E+00; 4.69614E+02
 2.63868E+01; 2.91457E-01; 0.00000E+00; 5.39630E+00; 4.69556E+02
 2.64068E+01; 2.91457E-01; 9.54913E-02; 5.66307E+00; 4.69556E+02
 2.64268E+01; 2.91457E-01; 9.54913E-02; 5.66307E+00; 4.69452E+02
 2.64468E+01; 2.91457E-01; 9.54913E-02; 5.66307E+00; 4.69452E+02
 2.64668E+01; 3.21751E-01; 0.00000E+00; 5.31429E+00; 4.69348E+02
 2.64868E+01; 3.21751E-01; 0.00000E+00; 5.31429E+00; 4.69348E+02
 2.65068E+01; 1.97396E-01; 0.00000E+00; 5.81188E+00; 4.69286E+02
 2.65268E+01; 2.18669E-01; 1.08043E-01; 5.92905E+00; 4.69286E+02
 2.65468E+01; 2.18669E-01; 1.08043E-01; 5.92905E+00; 4.69265E+02
 2.65668E+01; 3.21751E-01; 0.00000E+00; 5.31429E+00; 4.69265E+02
 2.65868E+01; 2.18669E-01; 1.08043E-01; 5.92905E+00; 4.69228E+02
 2.66068E+01; 2.18669E-01; 1.08043E-01; 5.92905E+00; 4.69228E+02
 2.66268E+01; 1.97396E-01; 9.77456E-02; 5.99870E+00; 4.69176E+02
 2.66468E+01; 2.44979E-01; 0.00000E+00; 5.56528E+00; 4.69176E+02
 2.66668E+01; 2.18669E-01; 0.00000E+00; 5.69120E+00; 4.69136E+02
 2.66868E+01; 2.18669E-01; 0.00000E+00; 5.69120E+00; 4.69136E+02
 2.67068E+01; 1.97396E-01; 0.00000E+00; 5.81188E+00; 4.69135E+02
 2.67268E+01; 1.97396E-01; 9.77456E-02; 5.99870E+00; 4.69135E+02
 2.67468E+01; 2.18669E-01; 0.00000E+00; 5.69120E+00; 4.69172E+02
 2.67668E+01; 2.18669E-01; 0.00000E+00; 5.69120E+00; 4.69172E+02
 2.67868E+01; 1.97396E-01; 9.77456E-02; 5.99870E+00; 4.69174E+02
 2.68068E+01; 2.91457E-01; 9.54913E-02; 5.66307E+00; 4.69174E+02
 2.68268E+01; 2.91457E-01; 9.54913E-02; 5.66307E+00; 4.69143E+02
 2.68468E+01; 1.97396E-01; 9.77456E-02; 5.99870E+00; 4.69143E+02
 2.68668E+01; 0.00000E+00; 0.00000E+00; 7.86628E-01; 4.69105E+02
 2.68868E+01; 1.97396E-01; 0.00000E+00; 5.81188E+00; 4.69105E+02
 2.69068E+01; 2.91457E-01; 0.00000E+00; 5.39630E+00; 4.69086E+02
 2.69268E+01; 2.91457E-01; 9.54913E-02; 5.66307E+00; 4.69086E+02
 2.69468E+01; 1.97396E-01; 9.77456E-02; 5.99870E+00; 4.69086E+02
 2.69668E+01; 2.18669E-01; 1.08043E-01; 5.92905E+00; 4.69086E+02
 2.69868E+01; 2.18669E-01; 1.08043E-01; 5.92905E+00; 4.69081E+02
 2.70068E+01; 1.97396E-01; 0.00000E+00; 5.81188E+00; 4.69081E+02
 2.70268E+01; 1.97396E-01; 0.00000E+00; 5.81188E+00; 4.69070E+02
 2.70468E+01; 1.97396E-01; 0.00000E+00; 5.81188E+00; 4.69070E+02
 2.70668E+01; 1.97396E-01; 0.00000E+00; 5.81188E+00; 4.69049E+02
 2.70868E+01; 1.97396E-01; 0.00000E+00; 5.81188E+00; 4.69049E+02
 2.71068E+01; 2.91457E-01; 0.00000E+00; 5.39630E+00; 4.69015E+02
 2.71268E+01; 1.97396E-01; 0.00000E+00; 5.81188E+00; 4.69015E+02
 2.71468E+01; 1.97396E-01; 0.00000E+00; 5.81188E+00; 4.68970E+02
 2.71668E+01; 1.97396E-01; 0.00000E+00; 5.81188E+00; 4.68970E+02
 2.71868E+01; 1.79853E-01; 0.00000E+00; 5.92426E+00; 4.68990E+02
 2.72068E+01; 1.79853E-01; 0.00000E+00; 5.92426E+00; 4.68990E+02
 2.72268E+01; 1.97396E-01; 0.00000E+00; 5.81188E+00; 4.69074E+02
 2.72468E+01; 1.97396E-01; 9.77456E-02; 5.99870E+00; 4.69074E+02
 2.72668E+01; 1.97396E-01; 9.77456E-02; 5.99870E+00; 4.69153E+02
 2.72868E+01; 1.97396E-01; 9.77456E-02; 5.99870E+00; 4.69153E+02
 2.73068E+01; 2.18669E-01; 0.00000E+00; 5.69120E+00; 4.69164E+02
 2.73268E+01; 1.10657E-01; 0.00000E+00; 1.54611E-01; 4.69164E+02
 2.73468E+01; 9.96687E-02; 9.91773E-02; 1.36025E-01; 4.69109E+02
 2.73668E+01; 1.10657E-01; 1.09986E-01; 8.46673E-02; 4.69109E+02
 2.73868E+01; 1.10657E-01; 2.17373E-01; 5.91532E-02; 4.69069E+02
 2.74068E+01; 1.10657E-01; 2.17373E-01; 5.91532E-02; 4.69069E+02
 2.74268E+01; 1.10657E-01; 1.09986E-01; 8.46673E-02; 4.69044E+02
 2.74468E+01; 1.10657E-01; 1.09986E-01; 8.46673E-02; 4.69044E+02
 2.74668E+01; 0.00000E+00; 0.00000E+00; 7.86628E-01; 4.69034E+02
 2.74868E+01; 1.10657E-01; 0.00000E+00; 1.54611E-01; 4.69034E+02
 2.75068E+01; 1.10657E-01; 0.00000E+00; 1.54611E-01; 4.69039E+02
 2.75268E+01; 0.00000E+00; 1.24355E-01; 4.77727E-01; 4.69039E+02
 2.75468E+01; 0.00000E+00; 9.96687E-02; 5.19629E-01; 4.69057E+02
 2.75668E+01; 0.00000E+00; 9.96687E-02; 5.19629E-01; 4.69057E+02
 2.75868E+01; 0.00000E+00;-9.96687E-02; 1.33795E+00; 4.69061E+02
 2.76068E+01; 9.96687E-02;-9.91773E-02; 7.95528E-01; 4.69061E+02
 2.76268E+01; 1.97396E-01; 0.00000E+00; 5.81188E+00; 4.69048E+02
 2.76468E+01; 1.97396E-01; 9.77456E-02; 5.99870E+00; 4.69048E+02
 2.76668E+01; 9.96687E-02; 9.91773E-02; 1.36025E-01; 4.69032E+02
 2.76868E+01; 0.00000E+00; 0.00000E+00; 7.86628E-01; 4.69032E+02
 2.77068E+01; 0.00000E+00; 0.00000E+00; 7.86628E-01; 4.69024E+02
 2.77268E+01; 9.96687E-02; 0.00000E+00; 2.35716E-01; 4.69024E+02
 2.77468E+01; 1.10657E-01; 1.09986E-01; 8.46673E-02; 4.69025E+02
 2.77668E+01; 2.18669E-01; 2.13621E-01; 6.02996E+00; 4.69025E+02
 2.77868E+01; 1.97396E-01; 9.77456E-02; 5.99870E+00; 4.69038E+02
 2.78068E+01; 9.96687E-02;-9.91773E-02; 7.95528E-01; 4.69038E+02
 2.78268E+01; 0.00000E+00; 0.00000E+00; 7.86628E-01; 4.69063E+02
 2.78468E+01; 9.06599E-02; 0.00000E+00; 2.99961E-01; 4.69063E+02
 2.78668E+01; 9.06599E-02; 0.00000E+00; 2.99961E-01; 4.69081E+02
 2.78868E+01; 1.79853E-01; 0.00000E+00; 5.92426E+00; 4.69081E+02
 2.79068E+01; 1.97396E-01; 0.00000E+00; 5.81188E+00; 4.69073E+02
 2.79268E+01; 2.18669E-01; 1.08043E-01; 5.92905E+00; 4.69073E+02
 2.79468E+01; 9.96687E-02; 9.91773E-02; 1.36025E-01; 4.69041E+02
 2.79668E+01;-9.96687E-02; 0.00000E+00; 1.05283E+00; 4.69041E+02
 2.79868E+01; 0.00000E+00; 0.00000E+00; 7.86628E-01; 4.69034E+02
 2.80068E+01; 9.96687E-02; 9.91773E-02; 1.36025E-01; 4.69034E+02
 2.80268E+01; 1.10657E-01; 1.09986E-01; 8.46673E-02; 4.69053E+02
 2.80468E+01; 0.00000E+00; 0.00000E+00; 7.86628E-01; 4.69053E+02
 2.80668E+01; 0.00000E+00; 0.00000E+00; 7.86628E-01; 4.69100E+02
 2.80868E+01; 0.00000E+00; 0.00000E+00; 7.86628E-01; 4.69100E+02
 2.81068E+01; 0.00000E+00; 0.00000E+00; 7.86628E-01; 4.69178E+02
 2.81268E+01; 1.10657E-01; 0.00000E+00; 1.54611E-01; 4.69178E+02
 2.81468E+01; 9.06599E-02; 0.00000E+00; 2.99961E-01; 4.69285E+02
 2.81668E+01; 0.00000E+00; 0.00000E+00; 7.86628E-01; 4.69285E+02
 2.81868E+01;-9.96687E-02; 9.91773E-02; 7.91055E-01; 4.69331E+02
 2.82068E+01; 0.00000E+00; 9.96687E-02; 5.19629E-01; 4.69331E+02
 2.82268E+01; 0.00000E+00; 9.96687E-02; 5.19629E-01; 4.69317E+02
 2.82468E+01; 0.00000E+00; 0.00000E+00; 7.86628E-01; 4.69317E+02
 2.82668E+01; 0.00000E+00; 0.00000E+00; 7.86628E-01; 4.69285E+02
 2.82868E+01; 0.00000E+00; 0.00000E+00; 7.86628E-01; 4.69285E+02
 2.83068E+01; 0.00000E+00; 0.00000E+00; 7.86628E-01; 4.69275E+02
 2.83268E+01; 0.00000E+00; 0.00000E+00; 7.86628E-01; 4.69275E+02
 2.83468E+01;-9.96687E-02; 9.91773E-02; 7.91055E-01; 4.69286E+02
 2.83668E+01; 0.00000E+00; 9.96687E-02; 5.19629E-01; 4.69286E+02
 2.83868E+01; 0.00000E+00; 0.00000E+00; 7.86628E-01; 4.69294E+02
 2.84068E+01; 0.00000E+00;-1.24355E-01; 1.52268E+00; 4.69294E+02
 2.84268E+01; 0.00000E+00; 0.00000E+00; 7.86628E-01; 4.69299E+02
 2.84468E+01;-9.96687E-02; 0.00000E+00; 1.05283E+00; 4.69299E+02
 2.84668E+01; 0.00000E+00; 0.00000E+00; 7.86628E-01; 4.69293E+02
 2.84868E+01; 0.00000E+00; 0.00000E+00; 7.86628E-01; 4.69293E+02
 2.85068E+01; 0.00000E+00; 9.96687E-02; 5.19629E-01; 4.69270E+02
 2.85268E+01;-1.10657E-01; 0.00000E+00; 1.07225E+00; 4.69270E+02
 2.85468E+01;-9.96687E-02; 0.00000E+00; 1.05283E+00; 4.69230E+02
 2.85668E+01;-9.96687E-02; 0.00000E+00; 1.05283E+00; 4.69230E+02
 2.85868E+01; 0.00000E+00; 0.00000E+00; 7.86628E-01; 4.69261E+02
 2.86068E+01; 1.10657E-01;-1.09986E-01; 7.99508E-01; 4.69261E+02
 2.86268E+01; 0.00000E+00; 0.00000E+00; 7.86628E-01; 4.69365E+02
 2.86468E+01; 0.00000E+00; 9.96687E-02; 5.19629E-01; 4.69365E+02
 2.86668E+01; 0.00000E+00; 0.00000E+00; 7.86628E-01; 4.69483E+02
 2.86868E+01; 0.00000E+00; 0.00000E+00; 7.86628E-01; 4.69483E+02
 2.87068E+01; 0.00000E+00; 0.00000E+00; 7.86628E-01; 4.69559E+02
 2.87268E+01; 0.00000E+00; 0.00000E+00; 7.86628E-01; 4.69559E+02
 2.87468E+01; 0.00000E+00; 0.00000E+00; 7.86628E-01; 4.69596E+02
 2.87668E+01; 0.00000E+00; 0.00000E+00; 7.86628E-01; 4.69596E+02
 2.87868E+01; 0.00000E+00; 0.00000E+00; 7.86628E-01; 4.69633E+02
 2.88068E+01; 0.00000E+00; 0.00000E+00; 7.86628E-01; 4.69633E+02
 2.88268E+01; 0.00000E+00; 0.00000E+00; 7.86628E-01; 4.69670E+02
 2.88468E+01; 0.00000E+00; 0.00000E+00; 7.86628E-01; 4.69670E+02
 2.88668E+01; 0.00000E+00; 0.00000E+00; 7.86628E-01; 4.69689E+02
 2.88868E+01; 0.00000E+00; 0.00000E+00; 7.86628E-01; 4.69689E+02
 2.89068E+01; 0.00000E+00; 0.00000E+00; 7.86628E-01; 4.69672E+02
 2.89268E+01; 0.00000E+00; 0.00000E+00; 7.86628E-01; 4.69672E+02
 2.89468E+01; 0.00000E+00; 0.00000E+00; 7.86628E-01; 4.69619E+02
 2.89668E+01; 0.00000E+00; 0.00000E+00; 7.86628E-01; 4.69619E+02
 2.89868E+01; 0.00000E+00; 0.00000E+00; 7.86628E-01; 4.69593E+02
 2.90068E+01; 0.00000E+00; 0.00000E+00; 7.86628E-01; 4.69593E+02
 2.90268E+01; 0.00000E+00; 0.00000E+00; 7.86628E-01; 4.69592E+02
 2.90468E+01; 0.00000E+00; 0.00000E+00; 7.86628E-01; 4.69592E+02
 2.90668E+01; 0.00000E+00; 9.96687E-02; 5.19629E-01; 4.69583E+02
 2.90868E+01; 0.00000E+00; 0.00000E+00; 7.86628E-01; 4.69583E+02
 2.91068E+01; 0.00000E+00; 0.00000E+00; 7.86628E-01; 4.69535E+02
 2.91268E+01; 0.00000E+00; 0.00000E+00; 7.86628E-01; 4.69535E+02
 2.91468E+01; 0.00000E+00; 0.00000E+00; 7.86628E-01; 4.69446E+02
 2.91668E+01; 0.00000E+00; 0.00000E+00; 7.86628E-01; 4.69446E+02
 2.91868E+01; 0.00000E+00; 0.00000E+00; 7.86628E-01; 4.69384E+02
 2.92068E+01; 0.00000E+00; 0.00000E+00; 7.86628E-01; 4.69384E+02
 2.92268E+01; 0.00000E+00; 0.00000E+00; 7.86628E-01; 4.69347E+02
 2.92468E+01; 0.00000E+00; 0.00000E+00; 7.86628E-01; 4.69347E+02
 2.92668E+01; 9.96687E-02; 0.00000E+00; 2.35716E-01; 4.69338E+02
 2.92868E+01; 0.00000E+00; 0.00000E+00; 7.86628E-01; 4.69338E+02
 2.93068E+01; 0.00000E+00; 0.00000E+00; 7.86628E-01; 4.69355E+02
 2.93268E+01; 0.00000E+00; 0.00000E+00; 7.86628E-01; 4.69355E+02
 2.93468E+01; 0.00000E+00; 0.00000E+00; 7.86628E-01; 4.69399E+02
 2.93668E+01; 0.00000E+00; 0.00000E+00; 7.86628E-01; 4.69399E+02
 2.93868E+01; 0.00000E+00; 9.96687E-02; 5.19629E-01; 4.69396E+02
 2.94068E+01; 0.00000E+00; 9.96687E-02; 5.19629E-01; 4.69396E+02
 2.94268E+01; 0.00000E+00; 0.00000E+00; 7.86628E-01; 4.69346E+02
 2.94468E+01; 0.00000E+00; 0.00000E+00; 7.86628E-01; 4.69346E+02
 2.94668E+01; 0.00000E+00; 1.10657E-01; 5.00146E-01; 4.69302E+02
 2.94868E+01; 9.96687E-02; 9.91773E-02; 1.36025E-01; 4.69302E+02
 2.95068E+01; 0.00000E+00; 0.00000E+00; 7.86628E-01; 4.69317E+02
 2.95268E+01; 0.00000E+00; 0.00000E+00; 7.86628E-01; 4.69317E+02
 2.95468E+01; 0.00000E+00; 0.00000E+00; 7.86628E-01; 4.69389E+02
 2.95668E+01; 0.00000E+00; 0.00000E+00; 7.86628E-01; 4.69389E+02
 2.95868E+01; 0.00000E+00; 0.00000E+00; 7.86628E-01; 4.69405E+02
 2.96068E+01; 0.00000E+00; 0.00000E+00; 7.86628E-01; 4.69405E+02
 2.96268E+01; 0.00000E+00; 0.00000E+00; 7.86628E-01; 4.69367E+02
 2.96468E+01; 0.00000E+00; 0.00000E+00; 7.86628E-01; 4.69367E+02
 2.96668E+01; 0.00000E+00; 1.10657E-01; 5.00146E-01; 4.69305E+02
 2.96868E+01; 0.00000E+00; 1.10657E-01; 5.00146E-01; 4.69305E+02
 2.97068E+01; 0.00000E+00; 9.96687E-02; 5.19629E-01; 4.69250E+02
 2.97268E+01; 0.00000E+00; 0.00000E+00; 7.86628E-01; 4.69250E+02
 2.97468E+01; 0.00000E+00; 0.00000E+00; 7.86628E-01; 4.69201E+02
 2.97668E+01; 0.00000E+00; 0.00000E+00; 7.86628E-01; 4.69201E+02
 2.97868E+01; 0.00000E+00; 0.00000E+00; 7.86628E-01; 4.69168E+02
 2.98068E+01; 0.00000E+00; 0.00000E+00; 7.86628E-01; 4.69168E+02
 2.98268E+01; 9.96687E-02; 9.91773E-02; 1.36025E-01; 4.69149E+02
 2.98468E+01; 0.00000E+00; 0.00000E+00; 7.86628E-01; 4.69149E+02
 2.98668E+01; 0.00000E+00; 0.00000E+00; 7.86628E-01; 4.69135E+02
 2.98868E+01; 0.00000E+00; 0.00000E+00; 7.86628E-01; 4.69135E+02
 2.99068E+01; 0.00000E+00; 0.00000E+00; 7.86628E-01; 4.69115E+02
 2.99268E+01; 0.00000E+00; 0.00000E+00; 7.86628E-01; 4.69115E+02
 2.99468E+01; 0.00000E+00; 1.10657E-01; 5.00146E-01; 4.69090E+02
 2.99668E+01; 0.00000E+00; 9.96687E-02; 5.19629E-01; 4.69090E+02
 2.99868E+01; 0.00000E+00; 0.00000E+00; 7.86628E-01; 4.69073E+02
 3.00068E+01; 0.00000E+00; 0.00000E+00; 7.86628E-01; 4.69073E+02
 3.00268E+01; 0.00000E+00; 0.00000E+00; 7.86628E-01; 4.69064E+02
 3.00468E+01; 0.00000E+00; 0.00000E+00; 7.86628E-01; 4.69064E+02
 3.00668E+01; 0.00000E+00; 0.00000E+00; 7.86628E-01; 4.69072E+02
 3.00868E+01; 0.00000E+00; 0.00000E+00; 7.86628E-01; 4.69072E+02
 3.01068E+01; 0.00000E+00; 0.00000E+00; 7.86628E-01; 4.69108E+02
 3.01268E+01; 0.00000E+00; 0.00000E+00; 7.86628E-01; 4.69108E+02
 3.01468E+01; 0.00000E+00; 0.00000E+00; 7.86628E-01; 4.69172E+02
 3.01668E+01; 0.00000E+00; 0.00000E+00; 7.86628E-01; 4.69172E+02
 3.01868E+01; 0.00000E+00; 0.00000E+00; 7.86628E-01; 4.69196E+02
 3.02068E+01; 0.00000E+00; 1.10657E-01; 5.00146E-01; 4.69196E+02
 3.02268E+01; 9.96687E-02; 0.00000E+00; 2.35716E-01; 4.69181E+02
 3.02468E+01; 9.96687E-02; 0.00000E+00; 2.35716E-01; 4.69181E+02
 3.02668E+01; 0.00000E+00; 9.96687E-02; 5.19629E-01; 4.69151E+02
 3.02868E+01; 0.00000E+00; 9.96687E-02; 5.19629E-01; 4.69151E+02
 3.03068E+01; 0.00000E+00; 9.96687E-02; 5.19629E-01; 4.69127E+02
 3.03268E+01; 0.00000E+00; 0.00000E+00; 7.86628E-01; 4.69127E+02
 3.03468E+01; 0.00000E+00; 0.00000E+00; 7.86628E-01; 4.69109E+02
 3.03668E+01; 0.00000E+00; 0.00000E+00; 7.86628E-01; 4.69109E+02
 3.03868E+01; 9.06599E-02; 0.00000E+00; 2.99961E-01; 4.69093E+02
 3.04068E+01; 0.00000E+00; 0.00000E+00; 7.86628E-01; 4.69093E+02
 3.04268E+01; 0.00000E+00; 0.00000E+00; 7.86628E-01; 4.69077E+02
 3.04468E+01; 0.00000E+00; 0.00000E+00; 7.86628E-01; 4.69077E+02
 3.04668E+01; 0.00000E+00; 0.00000E+00; 7.86628E-01; 4.69045E+02
 3.04868E+01; 0.00000E+00; 0.00000E+00; 7.86628E-01; 4.69045E+02
 3.05068E+01; 0.00000E+00; 0.00000E+00; 7.86628E-01; 4.68982E+02
 3.05268E+01; 0.00000E+00; 0.00000E+00; 7.86628E-01; 4.68982E+02
 3.05468E+01; 0.00000E+00; 0.00000E+00; 7.86628E-01; 4.68889E+02
 3.05668E+01; 0.00000E+00; 0.00000E+00; 7.86628E-01; 4.68889E+02
 3.05868E+01; 0.00000E+00; 0.00000E+00; 7.86628E-01; 4.68883E+02
 3.06068E+01; 0.00000E+00; 0.00000E+00; 7.86628E-01; 4.68883E+02
 3.06268E+01; 0.00000E+00; 0.00000E+00; 7.86628E-01; 4.68966E+02
 3.06468E+01; 0.00000E+00; 0.00000E+00; 7.86628E-01; 4.68966E+02
 3.06668E+01; 0.00000E+00; 0.00000E+00; 7.86628E-01; 4.69076E+02
 3.06868E+01; 0.00000E+00; 0.00000E+00; 7.86628E-01; 4.69076E+02
 3.07068E+01; 0.00000E+00; 9.96687E-02; 5.19629E-01; 4.69151E+02
 3.07268E+01; 0.00000E+00; 1.10657E-01; 5.00146E-01; 4.69151E+02
 3.07468E+01; 0.00000E+00; 1.10657E-01; 5.00146E-01; 4.69194E+02
 3.07668E+01; 0.00000E+00; 0.00000E+00; 7.86628E-01; 4.69194E+02
 3.07868E+01; 0.00000E+00; 0.00000E+00; 7.86628E-01; 4.69227E+02
 3.08068E+01; 0.00000E+00; 0.00000E+00; 7.86628E-01; 4.69227E+02
 3.08268E+01; 0.00000E+00; 0.00000E+00; 7.86628E-01; 4.69250E+02
 3.08468E+01; 0.00000E+00; 0.00000E+00; 7.86628E-01; 4.69250E+02
 3.08668E+01; 0.00000E+00; 0.00000E+00; 7.86628E-01; 4.69288E+02
 3.08868E+01; 0.00000E+00; 0.00000E+00; 7.86628E-01; 4.69288E+02
 3.09068E+01; 0.00000E+00; 0.00000E+00; 7.86628E-01; 4.69361E+02
 3.09268E+01; 0.00000E+00; 0.00000E+00; 7.86628E-01; 4.69361E+02
 3.09468E+01; 0.00000E+00; 0.00000E+00; 7.86628E-01; 4.69469E+02
 3.09668E+01; 0.00000E+00; 0.00000E+00; 7.86628E-01; 4.69469E+02
 3.09868E+01; 0.00000E+00; 0.00000E+00; 7.86628E-01; 4.69448E+02
 3.10068E+01; 0.00000E+00; 0.00000E+00; 7.86628E-01; 4.69448E+02
 3.10268E+01; 0.00000E+00; 0.00000E+00; 7.86628E-01; 4.69300E+02
 3.10468E+01;-1.10657E-01; 0.00000E+00; 1.07225E+00; 4.69300E+02
 3.10668E+01; 0.00000E+00; 0.00000E+00; 7.86628E-01; 4.69133E+02
 3.10868E+01;-1.10657E-01; 0.00000E+00; 1.07225E+00; 4.69133E+02
 3.11068E+01; 0.00000E+00; 0.00000E+00; 7.86628E-01; 4.69052E+02
 3.11268E+01; 0.00000E+00; 9.96687E-02; 5.19629E-01; 4.69052E+02
 3.11468E+01; 0.00000E+00; 1.10657E-01; 5.00146E-01; 4.69054E+02
 3.11668E+01; 0.00000E+00; 0.00000E+00; 7.86628E-01; 4.69054E+02
 3.11868E+01; 0.00000E+00; 0.00000E+00; 7.86628E-01; 4.69063E+02
 3.12068E+01;-9.96687E-02; 0.00000E+00; 1.05283E+00; 4.69063E+02
 3.12268E+01;-9.96687E-02; 0.00000E+00; 1.05283E+00; 4.69078E+02
 3.12468E+01;-9.96687E-02; 0.00000E+00; 1.05283E+00; 4.69078E+02
 3.12668E+01; 0.00000E+00; 0.00000E+00; 7.86628E-01; 4.69094E+02
 3.12868E+01; 0.00000E+00; 0.00000E+00; 7.86628E-01; 4.69094E+02
 3.13068E+01; 0.00000E+00; 0.00000E+00; 7.86628E-01; 4.69110E+02
 3.13268E+01; 0.00000E+00; 9.96687E-02; 5.19629E-01; 4.69110E+02
 3.13468E+01; 0.00000E+00; 9.96687E-02; 5.19629E-01; 4.69126E+02
 3.13668E+01; 0.00000E+00; 0.00000E+00; 7.86628E-01; 4.69126E+02
 3.13868E+01; 0.00000E+00; 0.00000E+00; 7.86628E-01; 4.69184E+02
 3.14068E+01; 0.00000E+00; 0.00000E+00; 7.86628E-01; 4.69184E+02
 3.14268E+01; 0.00000E+00; 0.00000E+00; 7.86628E-01; 4.69285E+02
 3.14468E+01; 0.00000E+00; 1.24355E-01; 4.77727E-01; 4.69285E+02
 3.14668E+01; 0.00000E+00; 2.78300E-01; 3.17322E-01; 4.69375E+02
 3.14868E+01;-1.10657E-01; 2.17373E-01; 6.17973E-01; 4.69375E+02
 3.15068E+01;-9.06599E-02; 0.00000E+00; 1.03582E+00; 4.69405E+02
 3.15268E+01; 0.00000E+00; 0.00000E+00; 7.86628E-01; 4.69405E+02
 3.15468E+01; 9.96687E-02;-9.91773E-02; 7.95528E-01; 4.69375E+02
 3.15668E+01; 9.96687E-02; 0.00000E+00; 2.35716E-01; 4.69375E+02
 3.15868E+01; 9.06599E-02; 9.02896E-02; 1.81269E-01; 4.69391E+02
 3.16068E+01; 1.97396E-01; 9.77456E-02; 5.99870E+00; 4.69391E+02
 3.16268E+01; 9.96687E-02; 0.00000E+00; 2.35716E-01; 4.69452E+02
 3.16468E+01; 1.10657E-01; 0.00000E+00; 1.54611E-01; 4.69452E+02
 3.16668E+01; 0.00000E+00; 0.00000E+00; 7.86628E-01; 4.69516E+02
 3.16868E+01; 9.06599E-02; 0.00000E+00; 2.99961E-01; 4.69516E+02
 3.17068E+01; 9.06599E-02; 0.00000E+00; 2.99961E-01; 4.69540E+02
 3.17268E+01; 1.79853E-01; 8.92053E-02; 6.06336E+00; 4.69540E+02
 3.17468E+01; 9.96687E-02; 9.91773E-02; 1.36025E-01; 4.69525E+02
 3.17668E+01; 1.10657E-01; 1.09986E-01; 8.46673E-02; 4.69525E+02
 3.17868E+01; 9.96687E-02; 0.00000E+00; 2.35716E-01; 4.69525E+02
 3.18068E+01; 9.96687E-02; 0.00000E+00; 2.35716E-01; 4.69525E+02
 3.18268E+01; 9.96687E-02; 0.00000E+00; 2.35716E-01; 4.69541E+02
 3.18468E+01; 9.96687E-02; 9.91773E-02; 1.36025E-01; 4.69541E+02
 3.18668E+01; 1.10657E-01; 1.09986E-01; 8.46673E-02; 4.69582E+02
 3.18868E+01; 1.10657E-01; 1.09986E-01; 8.46673E-02; 4.69582E+02
 3.19068E+01; 1.10657E-01; 1.09986E-01; 8.46673E-02; 4.69659E+02
 3.19268E+01; 1.10657E-01; 1.09986E-01; 8.46673E-02; 4.69659E+02
 3.19468E+01; 9.96687E-02; 9.91773E-02; 1.36025E-01; 4.69769E+02
 3.19668E+01; 9.96687E-02; 0.00000E+00; 2.35716E-01; 4.69769E+02
 3.19868E+01; 9.96687E-02; 9.91773E-02; 1.36025E-01; 4.69821E+02
 3.20068E+01; 9.96687E-02; 9.91773E-02; 1.36025E-01; 4.69821E+02
 3.20268E+01; 1.97396E-01; 9.77456E-02; 5.99870E+00; 4.69815E+02
 3.20468E+01; 1.97396E-01; 9.77456E-02; 5.99870E+00; 4.69815E+02
 3.20668E+01; 9.96687E-02; 9.91773E-02; 1.36025E-01; 4.69786E+02
 3.20868E+01; 9.96687E-02; 9.91773E-02; 1.36025E-01; 4.69786E+02
 3.21068E+01; 9.96687E-02; 9.91773E-02; 1.36025E-01; 4.69770E+02
 3.21268E+01; 9.96687E-02; 9.91773E-02; 1.36025E-01; 4.69770E+02
 3.21468E+01; 1.10657E-01; 0.00000E+00; 1.54611E-01; 4.69766E+02
 3.21668E+01; 1.24355E-01;-1.23404E-01; 8.18158E-01; 4.69766E+02
 3.21868E+01; 1.24355E-01; 0.00000E+00; 5.06702E-02; 4.69761E+02
 3.22068E+01; 1.24355E-01; 1.23404E-01; 2.61716E-02; 4.69761E+02
 3.22268E+01; 9.96687E-02; 9.91773E-02; 1.36025E-01; 4.69755E+02
 3.22468E+01; 9.06599E-02; 0.00000E+00; 2.99961E-01; 4.69755E+02
 3.22668E+01; 1.79853E-01; 0.00000E+00; 5.92426E+00; 4.69738E+02
 3.22868E+01; 1.79853E-01; 0.00000E+00; 5.92426E+00; 4.69738E+02
 3.23068E+01; 1.97396E-01; 0.00000E+00; 5.81188E+00; 4.69701E+02
 3.23268E+01; 1.97396E-01; 9.77456E-02; 5.99870E+00; 4.69701E+02
 3.23468E+01; 2.18669E-01; 1.08043E-01; 5.92905E+00; 4.69644E+02
 3.23668E+01; 2.18669E-01; 1.08043E-01; 5.92905E+00; 4.69644E+02
 3.23868E+01; 1.10657E-01; 1.09986E-01; 8.46673E-02; 4.69593E+02
 3.24068E+01; 2.18669E-01; 1.08043E-01; 5.92905E+00; 4.69593E+02
 3.24268E+01; 1.97396E-01; 9.77456E-02; 5.99870E+00; 4.69549E+02
 3.24468E+01; 1.97396E-01; 0.00000E+00; 5.81188E+00; 4.69549E+02
 3.24668E+01; 1.97396E-01; 0.00000E+00; 5.81188E+00; 4.69509E+02
 3.24868E+01; 2.18669E-01; 0.00000E+00; 5.69120E+00; 4.69509E+02
 3.25068E+01; 2.18669E-01; 0.00000E+00; 5.69120E+00; 4.69470E+02
 3.25268E+01; 2.18669E-01; 1.08043E-01; 5.92905E+00; 4.69470E+02
 3.25468E+01; 1.10657E-01; 1.09986E-01; 8.46673E-02; 4.69433E+02
 3.25668E+01; 1.97396E-01; 0.00000E+00; 5.81188E+00; 4.69433E+02
 3.25868E+01; 1.97396E-01; 0.00000E+00; 5.81188E+00; 4.69351E+02
 3.26068E+01; 2.18669E-01; 0.00000E+00; 5.69120E+00; 4.69351E+02
 3.26268E+01; 2.18669E-01; 0.00000E+00; 5.69120E+00; 4.69223E+02
 3.26468E+01; 1.97396E-01; 9.77456E-02; 5.99870E+00; 4.69223E+02
 3.26668E+01; 1.97396E-01; 9.77456E-02; 5.99870E+00; 4.69088E+02
 3.26868E+01; 1.97396E-01; 9.77456E-02; 5.99870E+00; 4.69088E+02
 3.27068E+01; 1.97396E-01; 9.77456E-02; 5.99870E+00; 4.68985E+02
 3.27268E+01; 2.91457E-01; 9.54913E-02; 5.66307E+00; 4.68985E+02
 3.27468E+01; 2.91457E-01; 9.54913E-02; 5.66307E+00; 4.68914E+02
 3.27668E+01; 3.21751E-01; 1.05021E-01; 5.59893E+00; 4.68914E+02
 3.27868E+01; 2.18669E-01; 1.08043E-01; 5.92905E+00; 4.68859E+02
 3.28068E+01; 2.18669E-01; 1.08043E-01; 5.92905E+00; 4.68859E+02
 3.28268E+01; 2.18669E-01; 0.00000E+00; 5.69120E+00; 4.68821E+02
 3.28468E+01; 1.97396E-01; 0.00000E+00; 5.81188E+00; 4.68821E+02
 3.28668E+01; 1.97396E-01; 9.77456E-02; 5.99870E+00; 4.68800E+02
 3.28868E+01; 1.97396E-01; 9.77456E-02; 5.99870E+00; 4.68800E+02
 3.29068E+01; 1.97396E-01; 9.77456E-02; 5.99870E+00; 4.68795E+02
 3.29268E+01; 2.18669E-01; 0.00000E+00; 5.69120E+00; 4.68795E+02
 3.29468E+01; 2.18669E-01; 0.00000E+00; 5.69120E+00; 4.68807E+02
 3.29668E+01; 1.97396E-01; 9.77456E-02; 5.99870E+00; 4.68807E+02
 3.29868E+01; 1.97396E-01; 9.77456E-02; 5.99870E+00; 4.68883E+02
 3.30068E+01; 1.97396E-01; 0.00000E+00; 5.81188E+00; 4.68883E+02
 3.30268E+01; 1.97396E-01; 9.77456E-02; 5.99870E+00; 4.69022E+02
 3.30468E+01; 1.97396E-01; 9.77456E-02; 5.99870E+00; 4.69022E+02
 3.30668E+01; 1.97396E-01; 0.00000E+00; 5.81188E+00; 4.69168E+02
 3.30868E+01; 1.97396E-01; 0.00000E+00; 5.81188E+00; 4.69168E+02
 3.31068E+01; 1.97396E-01; 9.77456E-02; 5.99870E+00; 4.69266E+02
 3.31268E+01; 1.97396E-01; 0.00000E+00; 5.81188E+00; 4.69266E+02
 3.31468E+01; 2.18669E-01; 0.00000E+00; 5.69120E+00; 4.69317E+02
 3.31668E+01; 1.97396E-01; 9.77456E-02; 5.99870E+00; 4.69317E+02
 3.31868E+01; 1.97396E-01; 0.00000E+00; 5.81188E+00; 4.69366E+02
 3.32068E+01; 2.18669E-01; 1.08043E-01; 5.92905E+00; 4.69366E+02
 3.32268E+01; 2.18669E-01; 1.08043E-01; 5.92905E+00; 4.69414E+02
 3.32468E+01; 1.97396E-01; 9.77456E-02; 5.99870E+00; 4.69414E+02
 3.32668E+01; 1.97396E-01; 9.77456E-02; 5.99870E+00; 4.69453E+02
 3.32868E+01; 2.18669E-01; 1.08043E-01; 5.92905E+00; 4.69453E+02
 3.33068E+01; 1.97396E-01; 9.77456E-02; 5.99870E+00; 4.69479E+02
 3.33268E+01; 2.18669E-01; 0.00000E+00; 5.69120E+00; 4.69479E+02
 3.33468E+01; 1.97396E-01; 0.00000E+00; 5.81188E+00; 4.69492E+02
 3.33668E+01; 1.97396E-01; 9.77456E-02; 5.99870E+00; 4.69492E+02
 3.33868E+01; 1.97396E-01; 9.77456E-02; 5.99870E+00; 4.69503E+02
 3.34068E+01; 1.97396E-01; 9.77456E-02; 5.99870E+00; 4.69503E+02
 3.34268E+01; 1.97396E-01; 9.77456E-02; 5.99870E+00; 4.69513E+02
 3.34468E+01; 1.97396E-01; 9.77456E-02; 5.99870E+00; 4.69513E+02
 3.34668E+01; 1.97396E-01; 9.77456E-02; 5.99870E+00; 4.69534E+02
 3.34868E+01; 1.97396E-01; 0.00000E+00; 5.81188E+00; 4.69534E+02
 3.35068E+01; 1.97396E-01; 0.00000E+00; 5.81188E+00; 4.69576E+02
 3.35268E+01; 2.18669E-01; 1.08043E-01; 5.92905E+00; 4.69576E+02
 3.35468E+01; 1.97396E-01; 9.77456E-02; 5.99870E+00; 4.69638E+02
 3.35668E+01; 1.97396E-01; 9.77456E-02; 5.99870E+00; 4.69638E+02
 3.35868E+01; 1.97396E-01; 9.77456E-02; 5.99870E+00; 4.69695E+02
 3.36068E+01; 1.97396E-01; 9.77456E-02; 5.99870E+00; 4.69695E+02
 3.36268E+01; 1.97396E-01; 9.77456E-02; 5.99870E+00; 4.69747E+02
 3.36468E+01; 1.97396E-01; 9.77456E-02; 5.99870E+00; 4.69747E+02
 3.36668E+01; 1.97396E-01; 0.00000E+00; 5.81188E+00; 4.69786E+02
 3.36868E+01; 2.18669E-01; 0.00000E+00; 5.69120E+00; 4.69786E+02
 3.37068E+01; 2.18669E-01; 1.08043E-01; 5.92905E+00; 4.69808E+02
 3.37268E+01; 1.97396E-01; 9.77456E-02; 5.99870E+00; 4.69808E+02
 3.37468E+01; 2.18669E-01; 0.00000E+00; 5.69120E+00; 4.69813E+02
 3.37668E+01; 2.18669E-01; 1.08043E-01; 5.92905E+00; 4.69813E+02
 3.37868E+01; 1.97396E-01; 9.77456E-02; 5.99870E+00; 4.69799E+02
 3.38068E+01; 1.97396E-01; 9.77456E-02; 5.99870E+00; 4.69799E+02
 3.38268E+01; 1.97396E-01; 0.00000E+00; 5.81188E+00; 4.69767E+02
 3.38468E+01; 2.18669E-01; 0.00000E+00; 5.69120E+00; 4.69767E+02
 3.38668E+01; 1.97396E-01; 9.77456E-02; 5.99870E+00; 4.69721E+02
 3.38868E+01; 1.97396E-01; 0.00000E+00; 5.81188E+00; 4.69721E+02
 3.39068E+01; 1.97396E-01; 9.77456E-02; 5.99870E+00; 4.69663E+02
 3.39268E+01; 2.18669E-01; 0.00000E+00; 5.69120E+00; 4.69663E+02
 3.39468E+01; 1.97396E-01; 9.77456E-02; 5.99870E+00; 4.69593E+02
 3.39668E+01; 1.97396E-01; 9.77456E-02; 5.99870E+00; 4.69593E+02
 3.39868E+01; 1.97396E-01; 0.00000E+00; 5.81188E+00; 4.69520E+02
 3.40068E+01; 1.97396E-01; 9.77456E-02; 5.99870E+00; 4.69520E+02
 3.40268E+01; 1.97396E-01; 9.77456E-02; 5.99870E+00; 4.69444E+02
 3.40468E+01; 1.97396E-01; 9.77456E-02; 5.99870E+00; 4.69444E+02
 3.40668E+01; 1.97396E-01; 9.77456E-02; 5.99870E+00; 4.69382E+02
 3.40868E+01; 1.97396E-01; 0.00000E+00; 5.81188E+00; 4.69382E+02
 3.41068E+01; 1.97396E-01; 0.00000E+00; 5.81188E+00; 4.69350E+02
 3.41268E+01; 2.18669E-01; 1.08043E-01; 5.92905E+00; 4.69350E+02
 3.41468E+01; 1.97396E-01; 0.00000E+00; 5.81188E+00; 4.69348E+02
 3.41668E+01; 1.97396E-01; 9.77456E-02; 5.99870E+00; 4.69348E+02
 3.41868E+01; 1.97396E-01; 9.77456E-02; 5.99870E+00; 4.69362E+02
 3.42068E+01; 2.18669E-01; 1.08043E-01; 5.92905E+00; 4.69362E+02
 3.42268E+01; 1.97396E-01; 9.77456E-02; 5.99870E+00; 4.69393E+02
 3.42468E+01; 1.97396E-01; 9.77456E-02; 5.99870E+00; 4.69393E+02
 3.42668E+01; 1.97396E-01; 0.00000E+00; 5.81188E+00; 4.69425E+02
 3.42868E+01; 1.97396E-01; 0.00000E+00; 5.81188E+00; 4.69425E+02
 3.43068E+01; 1.97396E-01; 9.77456E-02; 5.99870E+00; 4.69442E+02
 3.43268E+01; 1.97396E-01; 9.77456E-02; 5.99870E+00; 4.69442E+02
 3.43468E+01; 2.18669E-01; 1.08043E-01; 5.92905E+00; 4.69445E+02
 3.43668E+01; 1.97396E-01; 0.00000E+00; 5.81188E+00; 4.69445E+02
 3.43868E+01; 1.97396E-01; 9.77456E-02; 5.99870E+00; 4.69448E+02
 3.44068E+01; 1.97396E-01; 9.77456E-02; 5.99870E+00; 4.69448E+02
 3.44268E+01; 1.97396E-01; 9.77456E-02; 5.99870E+00; 4.69451E+02
 3.44468E+01; 1.97396E-01; 9.77456E-02; 5.99870E+00; 4.69451E+02
 3.44668E+01; 1.97396E-01; 9.77456E-02; 5.99870E+00; 4.69450E+02
 3.44868E+01; 1.97396E-01; 9.77456E-02; 5.99870E+00; 4.69450E+02
 3.45068E+01; 1.97396E-01; 9.77456E-02; 5.99870E+00; 4.69440E+02
 3.45268E+01; 2.18669E-01; 1.08043E-01; 5.92905E+00; 4.69440E+02
 3.45468E+01; 1.97396E-01; 9.77456E-02; 5.99870E+00; 4.69420E+02
 3.45668E+01; 1.97396E-01; 9.77456E-02; 5.99870E+00; 4.69420E+02
 3.45868E+01; 1.97396E-01; 0.00000E+00; 5.81188E+00; 4.69394E+02
 3.46068E+01; 2.18669E-01; 1.08043E-01; 5.92905E+00; 4.69394E+02
 3.46268E+01; 1.97396E-01; 0.00000E+00; 5.81188E+00; 4.69360E+02
 3.46468E+01; 2.18669E-01; 1.08043E-01; 5.92905E+00; 4.69360E+02
 3.46668E+01; 1.97396E-01; 9.77456E-02; 5.99870E+00; 4.69329E+02
 3.46868E+01; 1.97396E-01; 0.00000E+00; 5.81188E+00; 4.69329E+02
 3.47068E+01; 1.97396E-01; 0.00000E+00; 5.81188E+00; 4.69311E+02
 3.47268E+01; 1.97396E-01; 9.77456E-02; 5.99870E+00; 4.69311E+02
 3.47468E+01; 1.97396E-01; 9.77456E-02; 5.99870E+00; 4.69306E+02
 3.47668E+01; 2.18669E-01; 1.08043E-01; 5.92905E+00; 4.69306E+02
 3.47868E+01; 1.97396E-01; 9.77456E-02; 5.99870E+00; 4.69279E+02
 3.48068E+01; 1.97396E-01; 0.00000E+00; 5.81188E+00; 4.69279E+02
 3.48268E+01; 1.97396E-01; 0.00000E+00; 5.81188E+00; 4.69230E+02
 3.48468E+01; 1.97396E-01; 9.77456E-02; 5.99870E+00; 4.69230E+02
 3.48668E+01; 1.97396E-01; 0.00000E+00; 5.81188E+00; 4.69188E+02
 3.48868E+01; 1.97396E-01; 9.77456E-02; 5.99870E+00; 4.69188E+02
 3.49068E+01; 1.97396E-01; 0.00000E+00; 5.81188E+00; 4.69177E+02
 3.49268E+01; 1.97396E-01; 9.77456E-02; 5.99870E+00; 4.69177E+02
 3.49468E+01; 2.18669E-01; 0.00000E+00; 5.69120E+00; 4.69197E+02
 3.49668E+01; 1.97396E-01; 9.77456E-02; 5.99870E+00; 4.69197E+02
 3.49868E+01; 1.97396E-01; 9.77456E-02; 5.99870E+00; 4.69172E+02
 3.50068E+01; 1.97396E-01; 9.77456E-02; 5.99870E+00; 4.69172E+02
 3.50268E+01; 1.97396E-01; 9.77456E-02; 5.99870E+00; 4.69102E+02
 3.50468E+01; 1.97396E-01; 9.77456E-02; 5.99870E+00; 4.69102E+02
 3.50668E+01; 1.97396E-01; 0.00000E+00; 5.81188E+00; 4.69011E+02
 3.50868E+01; 2.18669E-01; 1.08043E-01; 5.92905E+00; 4.69011E+02
 3.51068E+01; 2.18669E-01; 1.08043E-01; 5.92905E+00; 4.68921E+02
 3.51268E+01; 2.18669E-01; 1.08043E-01; 5.92905E+00; 4.68921E+02
 3.51468E+01; 1.97396E-01; 9.77456E-02; 5.99870E+00; 4.68833E+02
 3.51668E+01; 1.97396E-01; 9.77456E-02; 5.99870E+00; 4.68833E+02
 3.51868E+01; 2.18669E-01; 0.00000E+00; 5.69120E+00; 4.68803E+02
 3.52068E+01; 2.18669E-01; 1.08043E-01; 5.92905E+00; 4.68803E+02
 3.52268E+01; 2.18669E-01; 1.08043E-01; 5.92905E+00; 4.68831E+02
 3.52468E+01; 1.97396E-01; 0.00000E+00; 5.81188E+00; 4.68831E+02
 3.52668E+01; 1.97396E-01; 9.77456E-02; 5.99870E+00; 4.68872E+02
 3.52868E+01; 1.97396E-01; 9.77456E-02; 5.99870E+00; 4.68872E+02
 3.53068E+01; 1.97396E-01; 9.77456E-02; 5.99870E+00; 4.68885E+02
 3.53268E+01; 2.18669E-01; 1.08043E-01; 5.92905E+00; 4.68885E+02
 3.53468E+01; 1.97396E-01; 0.00000E+00; 5.81188E+00; 4.68871E+02
 3.53668E+01; 1.97396E-01; 9.77456E-02; 5.99870E+00; 4.68871E+02
 3.53868E+01; 1.97396E-01; 9.77456E-02; 5.99870E+00; 4.68901E+02
 3.54068E+01; 1.97396E-01; 9.77456E-02; 5.99870E+00; 4.68901E+02
 3.54268E+01; 2.18669E-01; 1.08043E-01; 5.92905E+00; 4.68977E+02
 3.54468E+01; 1.97396E-01; 9.77456E-02; 5.99870E+00; 4.68977E+02
 3.54668E+01; 1.97396E-01; 9.77456E-02; 5.99870E+00; 4.69069E+02
 3.54868E+01; 1.97396E-01; 9.77456E-02; 5.99870E+00; 4.69069E+02
 3.55068E+01; 1.97396E-01; 9.77456E-02; 5.99870E+00; 4.69147E+02
 3.55268E+01; 1.97396E-01; 0.00000E+00; 5.81188E+00; 4.69147E+02
 3.55468E+01; 1.97396E-01; 0.00000E+00; 5.81188E+00; 4.69214E+02
 3.55668E+01; 1.97396E-01; 0.00000E+00; 5.81188E+00; 4.69214E+02
 3.55868E+01; 1.97396E-01; 9.77456E-02; 5.99870E+00; 4.69244E+02
 3.56068E+01; 1.97396E-01; 0.00000E+00; 5.81188E+00; 4.69244E+02
 3.56268E+01; 1.97396E-01; 0.00000E+00; 5.81188E+00; 4.69238E+02
 3.56468E+01; 1.97396E-01; 9.77456E-02; 5.99870E+00; 4.69238E+02
 3.56668E+01; 1.97396E-01; 0.00000E+00; 5.81188E+00; 4.69216E+02
 3.56868E+01; 1.97396E-01; 0.00000E+00; 5.81188E+00; 4.69216E+02
 3.57068E+01; 2.18669E-01; 0.00000E+00; 5.69120E+00; 4.69197E+02
 3.57268E+01; 2.18669E-01; 0.00000E+00; 5.69120E+00; 4.69197E+02
 3.57468E+01; 1.97396E-01; 9.77456E-02; 5.99870E+00; 4.69184E+02
 3.57668E+01; 1.97396E-01; 9.77456E-02; 5.99870E+00; 4.69184E+02
 3.57868E+01; 2.18669E-01; 1.08043E-01; 5.92905E+00; 4.69166E+02
 3.58068E+01; 1.97396E-01; 0.00000E+00; 5.81188E+00; 4.69166E+02
 3.58268E+01; 1.97396E-01; 0.00000E+00; 5.81188E+00; 4.69145E+02
 3.58468E+01; 1.97396E-01; 9.77456E-02; 5.99870E+00; 4.69145E+02
 3.58668E+01; 2.18669E-01; 1.08043E-01; 5.92905E+00; 4.69111E+02
 3.58868E+01; 1.97396E-01; 0.00000E+00; 5.81188E+00; 4.69111E+02
 3.59068E+01; 1.97396E-01; 9.77456E-02; 5.99870E+00; 4.69055E+02
 3.59268E+01; 2.18669E-01; 1.08043E-01; 5.92905E+00; 4.69055E+02
 3.59468E+01; 2.18669E-01; 1.08043E-01; 5.92905E+00; 4.68976E+02
 3.59668E+01; 1.97396E-01; 9.77456E-02; 5.99870E+00; 4.68976E+02
 3.59868E+01; 1.97396E-01; 9.77456E-02; 5.99870E+00; 4.68918E+02
 3.60068E+01; 2.18669E-01; 1.08043E-01; 5.92905E+00; 4.68918E+02
 3.60268E+01; 1.97396E-01; 0.00000E+00; 5.81188E+00; 4.68879E+02
 3.60468E+01; 1.97396E-01; 0.00000E+00; 5.81188E+00; 4.68879E+02
 3.60668E+01; 1.97396E-01; 9.77456E-02; 5.99870E+00; 4.68858E+02
 3.60868E+01; 1.97396E-01; 9.77456E-02; 5.99870E+00; 4.68858E+02
 3.61068E+01; 2.18669E-01; 1.08043E-01; 5.92905E+00; 4.68857E+02
 3.61268E+01; 1.97396E-01; 9.77456E-02; 5.99870E+00; 4.68857E+02
 3.61468E+01; 1.97396E-01; 9.77456E-02; 5.99870E+00; 4.68873E+02
 3.61668E+01; 1.97396E-01; 9.77456E-02; 5.99870E+00; 4.68873E+02
 3.61868E+01; 1.97396E-01; 9.77456E-02; 5.99870E+00; 4.68873E+02
 3.62068E+01; 2.18669E-01; 1.08043E-01; 5.92905E+00; 4.68873E+02
 3.62268E+01; 1.97396E-01; 9.77456E-02; 5.99870E+00; 4.68858E+02
 3.62468E+01; 2.18669E-01; 1.08043E-01; 5.92905E+00; 4.68858E+02
 3.62668E+01; 1.97396E-01; 9.77456E-02; 5.99870E+00; 4.68863E+02
 3.62868E+01; 1.97396E-01; 9.77456E-02; 5.99870E+00; 4.68863E+02
 3.63068E+01; 1.97396E-01; 0.00000E+00; 5.81188E+00; 4.68926E+02
 3.63268E+01; 2.18669E-01; 1.08043E-01; 5.92905E+00; 4.68926E+02
 3.63468E+01; 2.18669E-01; 1.08043E-01; 5.92905E+00; 4.69044E+02
 3.63668E+01; 1.97396E-01; 9.77456E-02; 5.99870E+00; 4.69044E+02
 3.63868E+01; 1.97396E-01; 9.77456E-02; 5.99870E+00; 4.69131E+02
 3.64068E+01; 2.18669E-01; 1.08043E-01; 5.92905E+00; 4.69131E+02
 3.64268E+01; 1.97396E-01; 9.77456E-02; 5.99870E+00; 4.69187E+02
 3.64468E+01; 2.18669E-01; 1.08043E-01; 5.92905E+00; 4.69187E+02
 3.64668E+01; 1.97396E-01; 0.00000E+00; 5.81188E+00; 4.69215E+02
 3.64868E+01; 2.18669E-01; 0.00000E+00; 5.69120E+00; 4.69215E+02
 3.65068E+01; 2.18669E-01; 1.08043E-01; 5.92905E+00; 4.69217E+02
 3.65268E+01; 1.97396E-01; 9.77456E-02; 5.99870E+00; 4.69217E+02
 3.65468E+01; 2.18669E-01; 1.08043E-01; 5.92905E+00; 4.69195E+02
 3.65668E+01; 1.97396E-01; 9.77456E-02; 5.99870E+00; 4.69195E+02
 3.65868E+01; 1.97396E-01; 9.77456E-02; 5.99870E+00; 4.69207E+02
 3.66068E+01; 1.97396E-01; 9.77456E-02; 5.99870E+00; 4.69207E+02
 3.66268E+01; 1.97396E-01; 0.00000E+00; 5.81188E+00; 4.69253E+02
 3.66468E+01; 2.18669E-01; 1.08043E-01; 5.92905E+00; 4.69253E+02
 3.66668E+01; 1.97396E-01; 9.77456E-02; 5.99870E+00; 4.69278E+02
 3.66868E+01; 2.18669E-01; 1.08043E-01; 5.92905E+00; 4.69278E+02
 3.67068E+01; 1.97396E-01; 9.77456E-02; 5.99870E+00; 4.69227E+02
 3.67268E+01; 1.97396E-01; 9.77456E-02; 5.99870E+00; 4.69227E+02
 3.67468E+01; 1.97396E-01; 9.77456E-02; 5.99870E+00; 4.69105E+02
 3.67668E+01; 2.18669E-01; 0.00000E+00; 5.69120E+00; 4.69105E+02
 3.67868E+01; 2.18669E-01; 1.08043E-01; 5.92905E+00; 4.69053E+02
 3.68068E+01; 1.97396E-01; 9.77456E-02; 5.99870E+00; 4.69053E+02
 3.68268E+01; 2.18669E-01; 1.08043E-01; 5.92905E+00; 4.69072E+02
 3.68468E+01; 1.97396E-01; 9.77456E-02; 5.99870E+00; 4.69072E+02
 3.68668E+01; 1.97396E-01; 9.77456E-02; 5.99870E+00; 4.69120E+02
