time;roll;pitch;yaw;alt
 6.31844E+01;-8.67364E-01; 3.24770E-01; 6.28041E+00; 0.00000E+00
 6.32844E+01;-8.57603E-01; 1.76910E-01; 6.27251E+00; 0.00000E+00
 6.33844E+01;-8.43466E-01; 1.14392E-01; 6.26105E+00; 0.00000E+00
 6.34844E+01;-8.25661E-01; 8.80315E-02; 6.24699E+00; 0.00000E+00
 6.35844E+01;-8.04854E-01; 7.70950E-02; 6.23060E+00; 0.00000E+00
 6.36844E+01;-7.81779E-01; 7.28115E-02; 6.21194E+00; 0.00000E+00
 6.37844E+01;-7.56933E-01; 7.03593E-02; 6.19116E+00; 0.00000E+00
 6.38844E+01;-7.30686E-01; 6.86752E-02; 6.16817E+00; 0.00000E+00
 6.39844E+01;-7.03350E-01; 6.81058E-02; 6.14307E+00; 0.00000E+00
 6.40844E+01;-6.75355E-01; 6.81305E-02; 6.11591E+00; 0.00000E+00
 6.41844E+01;-6.47164E-01; 6.82567E-02; 6.08669E+00; 0.00000E+00
 6.42844E+01;-6.19003E-01; 6.84290E-02; 6.05539E+00; 0.00000E+00
 6.43844E+01;-5.90957E-01; 6.83801E-02; 6.02206E+00; 0.00000E+00
 6.44844E+01;-5.63200E-01; 6.83655E-02; 5.98670E+00; 0.00000E+00
 6.45844E+01;-5.36106E-01; 6.82058E-02; 5.94946E+00; 0.00000E+00
 6.46844E+01;-5.09813E-01; 6.79579E-02; 5.91032E+00; 0.00000E+00
 6.47844E+01;-4.83987E-01; 6.81599E-02; 5.86936E+00; 0.00000E+00
 6.48844E+01;-4.58696E-01; 6.87046E-02; 5.82658E+00; 0.00000E+00
 6.49844E+01;-4.34290E-01; 6.87965E-02; 5.78217E+00; 1.10903E+02
 6.50844E+01;-4.10880E-01; 6.86840E-02; 5.73622E+00; 1.10903E+02
 6.51844E+01;-3.88570E-01; 6.89972E-02; 5.68873E+00; 1.10903E+02
 6.52844E+01;-3.67293E-01; 6.94942E-02; 5.63982E+00; 1.10903E+02
 6.53844E+01;-3.46803E-01; 7.02749E-02; 5.58949E+00; 1.10903E+02
 6.54844E+01;-3.27146E-01; 7.10479E-02; 5.53791E+00; 1.10903E+02
 6.55844E+01;-3.08337E-01; 6.97152E-02; 5.48528E+00; 1.10903E+02
 6.56844E+01;-2.90380E-01; 6.72165E-02; 5.43171E+00; 1.10903E+02
 6.57844E+01;-2.73444E-01; 6.62324E-02; 5.37732E+00; 1.10903E+02
 6.58844E+01;-2.57497E-01; 6.61533E-02; 5.32214E+00; 1.10903E+02
 6.59844E+01;-2.42329E-01; 6.70832E-02; 5.26644E+00; 1.10903E+02
 6.60844E+01;-2.27912E-01; 6.84664E-02; 5.21047E+00; 1.10903E+02
 6.61844E+01;-2.14300E-01; 6.90447E-02; 5.15422E+00; 1.10903E+02
 6.62844E+01;-2.01413E-01; 6.91448E-02; 5.09771E+00; 1.10903E+02
 6.63844E+01;-1.89218E-01; 6.88170E-02; 5.04116E+00; 1.10903E+02
 6.64844E+01;-1.77740E-01; 6.82972E-02; 4.98464E+00; 1.10903E+02
 6.65844E+01;-1.66976E-01; 6.83002E-02; 4.92830E+00; 1.10903E+02
 6.66844E+01;-1.56866E-01; 6.86461E-02; 4.87231E+00; 1.10903E+02
 6.67844E+01;-1.47325E-01; 6.92020E-02; 4.81667E+00; 1.10903E+02
 6.68844E+01;-1.38362E-01; 6.98382E-02; 4.76139E+00; 1.10903E+02
 6.69844E+01;-1.29936E-01; 6.94263E-02; 4.70675E+00; 1.10903E+02
 6.70844E+01;-1.21986E-01; 6.84485E-02; 4.65282E+00; 1.10903E+02
 6.71844E+01;-1.14515E-01; 6.83004E-02; 4.59956E+00; 1.10903E+02
 6.72844E+01;-1.07530E-01; 6.84871E-02; 4.54686E+00; 1.10903E+02
 6.73844E+01;-1.00897E-01; 6.83433E-02; 4.49488E+00; 1.10903E+02
 6.74844E+01;-9.45762E-02; 6.80668E-02; 4.44356E+00; 1.10903E+02
 6.75844E+01;-8.87451E-02; 6.77845E-02; 4.39307E+00; 1.10903E+02
 6.76844E+01;-8.33868E-02; 6.75089E-02; 4.34354E+00; 1.10903E+02
 6.77844E+01;-7.83038E-02; 6.74009E-02; 4.29489E+00; 1.10903E+02
 6.78844E+01;-7.34901E-02; 6.73463E-02; 4.24727E+00; 1.10903E+02
 6.79844E+01;-6.89639E-02; 6.69697E-02; 4.20059E+00; 1.10903E+02
 6.80844E+01;-6.47104E-02; 6.65838E-02; 4.15471E+00; 1.10903E+02
 6.81844E+01;-6.07270E-02; 6.69214E-02; 4.10975E+00; 1.10903E+02
 6.82844E+01;-5.70069E-02; 6.76865E-02; 4.06579E+00; 1.10903E+02
 6.83844E+01;-5.34728E-02; 6.76343E-02; 4.02275E+00; 1.10903E+02
 6.84844E+01;-5.00955E-02; 6.72240E-02; 3.98072E+00; 1.10903E+02
 6.85844E+01;-4.69529E-02; 6.74372E-02; 3.93966E+00; 1.10903E+02
 6.86844E+01;-4.40318E-02; 6.80466E-02; 3.89946E+00; 1.10903E+02
 6.87844E+01;-4.12824E-02; 6.86584E-02; 3.86018E+00; 1.10903E+02
 6.88844E+01;-3.86955E-02; 6.91330E-02; 3.82170E+00; 1.10903E+02
 6.89844E+01;-3.63072E-02; 6.88296E-02; 3.78417E+00; 1.10903E+02
 6.90844E+01;-3.41209E-02; 6.83295E-02; 3.74769E+00; 1.10903E+02
 6.91844E+01;-3.19697E-02; 6.82805E-02; 3.71211E+00; 1.10903E+02
 6.92844E+01;-2.98489E-02; 6.85645E-02; 3.67743E+00; 1.10903E+02
 6.93844E+01;-2.79667E-02; 6.81059E-02; 3.64362E+00; 1.10903E+02
 6.94844E+01;-2.63042E-02; 6.74463E-02; 3.61059E+00; 1.10903E+02
 6.95844E+01;-2.47565E-02; 6.75745E-02; 3.57844E+00; 1.10903E+02
 6.96844E+01;-2.33314E-02; 6.80616E-02; 3.54721E+00; 1.10903E+02
 6.97844E+01;-2.19595E-02; 6.78125E-02; 3.51682E+00; 1.10903E+02
 6.98844E+01;-2.06384E-02; 6.71315E-02; 3.48724E+00; 1.10903E+02
 6.99844E+01;-1.93146E-02; 6.71922E-02; 3.45849E+00; 1.10903E+02
 7.00844E+01;-1.79776E-02; 6.76744E-02; 3.43064E+00; 1.10903E+02
 7.01844E+01;-1.67957E-02; 6.74743E-02; 3.40351E+00; 1.10903E+02
 7.02844E+01;-1.57542E-02; 6.70000E-02; 3.37702E+00; 1.10903E+02
 7.03844E+01;-1.47827E-02; 6.67804E-02; 3.35130E+00; 1.10903E+02
 7.04844E+01;-1.38949E-02; 6.68009E-02; 3.32634E+00; 1.10903E+02
 7.05844E+01;-1.30131E-02; 6.74603E-02; 3.30208E+00; 1.10903E+02
 7.06844E+01;-1.21565E-02; 6.84997E-02; 3.27845E+00; 1.10903E+02
 7.07844E+01;-1.13000E-02; 6.88570E-02; 3.25540E+00; 1.10903E+02
 7.08844E+01;-1.04332E-02; 6.89404E-02; 3.23279E+00; 1.10903E+02
 7.09844E+01;-9.74434E-03; 6.90336E-02; 3.21103E+00; 1.10903E+02
 7.10844E+01;-9.19744E-03; 6.91131E-02; 3.19008E+00; 1.10903E+02
 7.11844E+01;-8.60149E-03; 6.88403E-02; 3.16959E+00; 1.10903E+02
 7.12844E+01;-7.96197E-03; 6.85524E-02; 3.14956E+00; 1.10903E+02
 7.13844E+01;-7.41094E-03; 6.84140E-02; 3.13012E+00; 1.10903E+02
 7.14844E+01;-6.92208E-03; 6.84469E-02; 3.11145E+00; 1.10903E+02
 7.15844E+01;-6.43310E-03; 6.83586E-02; 3.09331E+00; 1.10903E+02
 7.16844E+01;-5.92810E-03; 6.82353E-02; 3.07562E+00; 1.10903E+02
 7.17844E+01;-5.48173E-03; 6.80521E-02; 3.05844E+00; 1.10903E+02
 7.18844E+01;-5.10399E-03; 6.78444E-02; 3.04186E+00; 1.10903E+02
 7.19844E+01;-4.72721E-03; 6.77386E-02; 3.02578E+00; 1.10903E+02
 7.20844E+01;-4.33449E-03; 6.76758E-02; 3.01020E+00; 1.10903E+02
 7.21844E+01;-4.01789E-03; 6.76230E-02; 2.99511E+00; 1.10903E+02
 7.22844E+01;-3.79128E-03; 6.76946E-02; 2.98055E+00; 1.10903E+02
 7.23844E+01;-3.55419E-03; 6.82539E-02; 2.96641E+00; 1.10903E+02
 7.24844E+01;-3.29051E-03; 6.91589E-02; 2.95268E+00; 1.10903E+02
 7.25844E+01;-2.98430E-03; 6.90068E-02; 2.93943E+00; 1.10903E+02
 7.26844E+01;-2.65764E-03; 6.83895E-02; 2.92677E+00; 1.10903E+02
 7.27844E+01;-2.44742E-03; 6.85971E-02; 2.91444E+00; 1.10903E+02
 7.28844E+01;-2.37835E-03; 6.92656E-02; 2.90232E+00; 1.10903E+02
 7.29844E+01;-2.24029E-03; 6.95075E-02; 2.89056E+00; 1.10903E+02
 7.30844E+01;-1.93021E-03; 6.94590E-02; 2.87914E+00; 1.10903E+02
 7.31844E+01;-1.57020E-03; 6.95227E-02; 2.86803E+00; 1.10903E+02
 7.32844E+01;-1.26966E-03; 6.97455E-02; 2.85718E+00; 1.10903E+02
 7.33844E+01;-9.59794E-04; 6.99238E-02; 2.84666E+00; 1.10903E+02
 7.34844E+01;-5.89916E-04; 7.00923E-02; 2.83638E+00; 1.10903E+02
 7.35844E+01;-5.29535E-04; 7.00824E-02; 2.82639E+00; 1.10903E+02
 7.36844E+01;-7.39008E-04; 6.99757E-02; 2.81672E+00; 1.10903E+02
 7.37844E+01;-8.73222E-04; 6.94400E-02; 2.80740E+00; 1.10903E+02
 7.38844E+01;-9.32017E-04; 6.87364E-02; 2.79837E+00; 1.10903E+02
 7.39844E+01;-9.11012E-04; 6.80495E-02; 2.78960E+00; 1.10903E+02
 7.40844E+01;-7.79773E-04; 6.73591E-02; 2.78126E+00; 1.10903E+02
 7.41844E+01;-6.55443E-04; 6.69675E-02; 2.77322E+00; 1.10903E+02
 7.42844E+01;-5.23272E-04; 6.68446E-02; 2.76532E+00; 1.10903E+02
 7.43844E+01;-9.07719E-04; 6.68184E-02; 2.75767E+00; 1.10903E+02
 7.44844E+01;-1.75928E-03; 6.69430E-02; 2.75016E+00; 1.10903E+02
 7.45844E+01;-1.92810E-03; 6.65986E-02; 2.74290E+00; 1.10903E+02
 7.46844E+01;-1.47219E-03; 6.62009E-02; 2.73607E+00; 1.10903E+02
 7.47844E+01;-1.39219E-03; 6.53187E-02; 2.72946E+00; 1.10903E+02
 7.48844E+01;-1.57582E-03; 6.42150E-02; 2.72311E+00; 1.10903E+02
 7.49844E+01;-1.76584E-03; 6.40792E-02; 2.71684E+00; 1.10903E+02
 7.50844E+01;-2.00091E-03; 6.44736E-02; 2.71053E+00; 1.10903E+02
 7.51844E+01;-2.12458E-03; 6.59760E-02; 2.70437E+00; 1.10903E+02
 7.52844E+01;-2.25047E-03; 6.79999E-02; 2.69850E+00; 1.10903E+02
 7.53844E+01;-2.77568E-03; 6.88981E-02; 2.69293E+00; 1.10903E+02
 7.54844E+01;-3.50725E-03; 6.91605E-02; 2.68764E+00; 1.10903E+02
 7.55844E+01;-3.85811E-03; 7.03963E-02; 2.68243E+00; 1.10903E+02
 7.56844E+01;-3.85999E-03; 7.20475E-02; 2.67727E+00; 1.10903E+02
 7.57844E+01;-3.98806E-03; 7.11707E-02; 2.67232E+00; 1.10903E+02
 7.58844E+01;-4.32588E-03; 6.89658E-02; 2.66773E+00; 1.10903E+02
 7.59844E+01;-4.81987E-03; 6.89862E-02; 2.66332E+00; 1.10903E+02
 7.60844E+01;-5.44468E-03; 7.01521E-02; 2.65867E+00; 1.10903E+02
 7.61844E+01;-5.71289E-03; 7.27288E-02; 2.65417E+00; 1.10903E+02
 7.62844E+01;-5.52820E-03; 7.60140E-02; 2.65006E+00; 1.10903E+02
 7.63844E+01;-6.68801E-03; 8.51021E-02; 2.64624E+00; 1.10903E+02
 7.64844E+01;-9.04354E-03; 1.03864E-01; 2.64219E+00; 1.10903E+02
 7.65844E+01;-1.16574E-02; 9.51108E-02; 2.63763E+00; 1.10903E+02
 7.66844E+01;-1.50361E-02; 8.03863E-02; 2.63377E+00; 1.10903E+02
 7.67844E+01;-1.47239E-02; 6.59452E-02; 2.63065E+00; 1.10903E+02
 7.68844E+01;-1.05304E-02; 4.97112E-02; 2.62845E+00; 1.10903E+02
 7.69844E+01;-8.58399E-03; 5.26221E-02; 2.62710E+00; 1.10903E+02
 7.70844E+01;-8.73912E-03; 6.50501E-02; 2.62544E+00; 1.10903E+02
 7.71844E+01;-7.69936E-03; 7.14523E-02; 2.62313E+00; 1.10903E+02
 7.72844E+01;-5.23550E-03; 7.43669E-02; 2.62068E+00; 1.10903E+02
 7.73844E+01;-4.31837E-03; 7.96419E-02; 2.61820E+00; 1.10903E+02
 7.74844E+01;-4.90422E-03; 8.60666E-02; 2.61566E+00; 1.10903E+02
 7.75844E+01;-4.72992E-03; 9.20171E-02; 2.61322E+00; 1.10903E+02
 7.76844E+01;-3.80128E-03; 9.77099E-02; 2.61093E+00; 1.10903E+02
 7.77844E+01;-3.56187E-03; 9.40533E-02; 2.60842E+00; 1.10903E+02
 7.78844E+01;-3.84033E-03; 8.54087E-02; 2.60579E+00; 1.10903E+02
 7.79844E+01;-3.89771E-03; 8.07515E-02; 2.60337E+00; 1.10903E+02
 7.80844E+01;-3.87038E-03; 7.84262E-02; 2.60134E+00; 1.10903E+02
 7.81844E+01;-4.20191E-03; 7.54950E-02; 2.59939E+00; 1.10903E+02
 7.82844E+01;-4.84430E-03; 7.16912E-02; 2.59768E+00; 1.10903E+02
 7.83844E+01;-5.72455E-03; 6.92487E-02; 2.59613E+00; 1.10903E+02
 7.84844E+01;-6.77381E-03; 6.76433E-02; 2.59467E+00; 1.10903E+02
 7.85844E+01;-7.40684E-03; 6.99141E-02; 2.59344E+00; 1.10903E+02
 7.86844E+01;-7.63478E-03; 7.39659E-02; 2.59203E+00; 1.10903E+02
 7.87844E+01;-8.06366E-03; 7.63688E-02; 2.59045E+00; 1.10903E+02
 7.88844E+01;-8.84190E-03; 7.78961E-02; 2.58887E+00; 1.10903E+02
 7.89844E+01;-9.22059E-03; 7.65607E-02; 2.58735E+00; 1.10903E+02
 7.90844E+01;-9.06089E-03; 7.39066E-02; 2.58590E+00; 1.10903E+02
 7.91844E+01;-8.76944E-03; 7.27844E-02; 2.58455E+00; 1.10903E+02
 7.92844E+01;-8.37446E-03; 7.24887E-02; 2.58337E+00; 1.10903E+02
 7.93844E+01;-8.46137E-03; 7.38497E-02; 2.58218E+00; 1.10903E+02
 7.94844E+01;-8.98311E-03; 7.60193E-02; 2.58082E+00; 1.10903E+02
 7.95844E+01;-8.70178E-03; 7.67414E-02; 2.57931E+00; 1.10903E+02
 7.96844E+01;-7.81637E-03; 7.68124E-02; 2.57790E+00; 1.10903E+02
 7.97844E+01;-7.08294E-03; 7.78965E-02; 2.57669E+00; 1.10903E+02
 7.98844E+01;-6.39518E-03; 7.93431E-02; 2.57539E+00; 1.10903E+02
 7.99844E+01;-6.80803E-03; 8.13511E-02; 2.57403E+00; 1.10903E+02
 8.00844E+01;-8.44786E-03; 8.37312E-02; 2.57274E+00; 1.10903E+02
 8.01844E+01;-1.07857E-02; 8.52896E-02; 2.57160E+00; 1.10903E+02
 8.02844E+01;-1.35550E-02; 8.63695E-02; 2.57067E+00; 1.10903E+02
 8.03844E+01;-1.44316E-02; 7.51816E-02; 2.56995E+00; 1.10903E+02
 8.04844E+01;-1.35505E-02; 5.82979E-02; 2.56926E+00; 1.10903E+02
 8.05844E+01;-1.25834E-02; 6.22897E-02; 2.56875E+00; 1.10903E+02
 8.06844E+01;-1.16675E-02; 7.64085E-02; 2.56835E+00; 1.10903E+02
 8.07844E+01;-1.10810E-02; 7.29239E-02; 2.56753E+00; 1.10903E+02
 8.08844E+01;-1.08323E-02; 5.95753E-02; 2.56679E+00; 1.10903E+02
 8.09844E+01;-1.03415E-02; 6.22156E-02; 2.56660E+00; 1.10903E+02
 8.10844E+01;-9.53020E-03; 7.26428E-02; 2.56648E+00; 1.10903E+02
 8.11844E+01;-8.49271E-03; 7.74499E-02; 2.56612E+00; 1.10903E+02
 8.12844E+01;-7.32953E-03; 7.91547E-02; 2.56530E+00; 1.10903E+02
 8.13844E+01;-7.06158E-03; 7.24576E-02; 2.56412E+00; 1.10903E+02
 8.14844E+01;-7.62976E-03; 6.14938E-02; 2.56275E+00; 1.10903E+02
 8.15844E+01;-6.65644E-03; 6.53663E-02; 2.56159E+00; 1.10903E+02
 8.16844E+01;-3.97297E-03; 7.66024E-02; 2.56068E+00; 1.10903E+02
 8.17844E+01;-2.25313E-03; 7.84057E-02; 2.55990E+00; 1.10903E+02
 8.18844E+01;-1.46865E-03; 7.56900E-02; 2.55894E+00; 1.10903E+02
 8.19844E+01;-4.36036E-04; 8.35593E-02; 2.55806E+00; 1.10903E+02
 8.20844E+01; 8.64108E-04; 9.71726E-02; 2.55685E+00; 1.10903E+02
 8.21844E+01; 1.61437E-03; 9.38387E-02; 2.55490E+00; 1.10903E+02
 8.22844E+01; 1.85772E-03; 8.27952E-02; 2.55297E+00; 1.10903E+02
 8.23844E+01; 2.38661E-03; 7.40543E-02; 2.55162E+00; 1.10903E+02
 8.24844E+01; 3.08144E-03; 6.62743E-02; 2.55077E+00; 1.10903E+02
 8.25844E+01; 3.26378E-03; 6.61086E-02; 2.55027E+00; 1.10903E+02
 8.26844E+01; 3.10336E-03; 6.94260E-02; 2.54969E+00; 1.10903E+02
 8.27844E+01; 2.90404E-03; 7.09390E-02; 2.54891E+00; 1.10903E+02
 8.28844E+01; 2.72801E-03; 7.14108E-02; 2.54816E+00; 1.10903E+02
 8.29844E+01; 2.52123E-03; 7.16229E-02; 2.54738E+00; 1.10903E+02
 8.30844E+01; 2.28522E-03; 7.18520E-02; 2.54643E+00; 1.10903E+02
 8.31844E+01; 2.13847E-03; 7.17102E-02; 2.54568E+00; 1.10903E+02
 8.32844E+01; 2.04885E-03; 7.14092E-02; 2.54500E+00; 1.10903E+02
 8.33844E+01; 1.87557E-03; 7.10040E-02; 2.54427E+00; 1.10903E+02
 8.34844E+01; 1.63132E-03; 7.06745E-02; 2.54355E+00; 1.10903E+02
 8.35844E+01; 1.47552E-03; 7.09669E-02; 2.54294E+00; 1.10903E+02
 8.36844E+01; 1.38357E-03; 7.16575E-02; 2.54254E+00; 1.10903E+02
 8.37844E+01; 1.32569E-03; 7.15438E-02; 2.54205E+00; 1.10903E+02
 8.38844E+01; 1.31255E-03; 7.10797E-02; 2.54140E+00; 1.10903E+02
 8.39844E+01; 1.28660E-03; 7.08627E-02; 2.54077E+00; 1.10903E+02
 8.40844E+01; 1.24804E-03; 7.08994E-02; 2.54027E+00; 1.10903E+02
 8.41844E+01; 1.22005E-03; 7.06481E-02; 2.53982E+00; 1.10903E+02
 8.42844E+01; 1.23347E-03; 7.03847E-02; 2.53934E+00; 1.10903E+02
 8.43844E+01; 1.18496E-03; 7.00129E-02; 2.53887E+00; 1.10903E+02
 8.44844E+01; 1.05731E-03; 6.96045E-02; 2.53843E+00; 1.10903E+02
 8.45844E+01; 9.38428E-04; 6.97442E-02; 2.53805E+00; 1.10903E+02
 8.46844E+01; 8.41372E-04; 7.01066E-02; 2.53786E+00; 1.10903E+02
 8.47844E+01; 7.82603E-04; 7.07139E-02; 2.53767E+00; 1.10903E+02
 8.48844E+01; 7.40214E-04; 7.15849E-02; 2.53750E+00; 1.10903E+02
 8.49844E+01; 6.39366E-04; 7.17064E-02; 2.53732E+00; 1.10903E+02
 8.50844E+01; 5.03163E-04; 7.13713E-02; 2.53703E+00; 1.10903E+02
 8.51844E+01; 4.16765E-04; 7.11915E-02; 2.53674E+00; 1.10903E+02
 8.52844E+01; 3.90170E-04; 7.12062E-02; 2.53652E+00; 1.10903E+02
 8.53844E+01; 3.44020E-04; 7.09467E-02; 2.53618E+00; 1.10903E+02
 8.54844E+01; 3.02422E-04; 7.06886E-02; 2.53583E+00; 1.10903E+02
 8.55844E+01; 2.76403E-04; 7.07060E-02; 2.53549E+00; 1.10903E+02
 8.56844E+01; 2.64932E-04; 7.09703E-02; 2.53498E+00; 1.10903E+02
 8.57844E+01; 1.65126E-04; 7.12863E-02; 2.53458E+00; 1.10903E+02
 8.58844E+01;-3.96898E-05; 7.17458E-02; 2.53432E+00; 1.10903E+02
 8.59844E+01; 5.27013E-04; 7.48713E-02; 2.53409E+00; 1.10903E+02
 8.60844E+01; 1.95577E-03; 8.40653E-02; 2.53349E+00; 1.10903E+02
 8.61844E+01; 2.56038E-03; 7.84051E-02; 2.53204E+00; 1.10903E+02
 8.62844E+01; 1.91690E-03; 6.94513E-02; 2.53112E+00; 1.10903E+02
 8.63844E+01; 1.84221E-03; 7.81693E-02; 2.53104E+00; 1.10903E+02
 8.64844E+01; 2.57494E-03; 9.55715E-02; 2.53111E+00; 1.10903E+02
 8.65844E+01; 3.19615E-03; 9.42784E-02; 2.53088E+00; 1.10903E+02
 8.66844E+01; 3.72363E-03; 8.38045E-02; 2.53017E+00; 1.10903E+02
 8.67844E+01; 3.98214E-03; 7.74031E-02; 2.52981E+00; 1.10903E+02
 8.68844E+01; 4.06783E-03; 7.34474E-02; 2.52970E+00; 1.10903E+02
 8.69844E+01; 3.88213E-03; 7.42050E-02; 2.52958E+00; 1.10903E+02
 8.70844E+01; 3.38932E-03; 7.72564E-02; 2.52952E+00; 1.10903E+02
 8.71844E+01; 3.19822E-03; 7.74869E-02; 2.52945E+00; 1.10903E+02
 8.72844E+01; 3.26970E-03; 7.59433E-02; 2.52917E+00; 1.10903E+02
 8.73844E+01; 3.38023E-03; 7.87720E-02; 2.52883E+00; 1.10903E+02
 8.74844E+01; 3.52854E-03; 8.38437E-02; 2.52878E+00; 1.10903E+02
 8.75844E+01; 3.95106E-03; 8.86683E-02; 2.52875E+00; 1.10903E+02
 8.76844E+01; 4.72038E-03; 9.32657E-02; 2.52854E+00; 1.10903E+02
 8.77844E+01; 5.12525E-03; 8.95647E-02; 2.52811E+00; 1.10903E+02
 8.78844E+01; 5.11527E-03; 8.15506E-02; 2.52740E+00; 1.10903E+02
 8.79844E+01; 5.23682E-03; 7.98908E-02; 2.52676E+00; 1.10903E+02
 8.80844E+01; 5.55962E-03; 8.15511E-02; 2.52603E+00; 1.10903E+02
 8.81844E+01; 5.64222E-03; 7.89161E-02; 2.52529E+00; 1.10903E+02
 8.82844E+01; 5.37452E-03; 7.42255E-02; 2.52488E+00; 1.10903E+02
 8.83844E+01; 4.98240E-03; 7.42960E-02; 2.52498E+00; 1.10903E+02
 8.84844E+01; 4.47598E-03; 7.65431E-02; 2.52510E+00; 1.10903E+02
 8.85844E+01; 4.01484E-03; 7.84668E-02; 2.52512E+00; 1.10903E+02
 8.86844E+01; 3.80615E-03; 8.00783E-02; 2.52514E+00; 1.10903E+02
 8.87844E+01; 3.52354E-03; 7.89617E-02; 2.52503E+00; 1.10903E+02
 8.88844E+01; 3.09908E-03; 7.64753E-02; 2.52489E+00; 1.10903E+02
 8.89844E+01; 2.83887E-03; 7.61281E-02; 2.52478E+00; 1.10903E+02
 8.90844E+01; 2.68468E-03; 7.68776E-02; 2.52493E+00; 1.10903E+02
 8.91844E+01; 2.60467E-03; 7.81942E-02; 2.52523E+00; 1.10903E+02
 8.92844E+01; 2.70987E-03; 7.96902E-02; 2.52587E+00; 1.10903E+02
 8.93844E+01; 3.05130E-03; 7.99067E-02; 2.52655E+00; 1.10903E+02
 8.94844E+01; 3.34750E-03; 7.94455E-02; 2.52706E+00; 1.10903E+02
 8.95844E+01; 3.44153E-03; 7.95768E-02; 2.52727E+00; 1.10903E+02
 8.96844E+01; 3.46752E-03; 8.00295E-02; 2.52729E+00; 1.10903E+02
 8.97844E+01; 3.29041E-03; 7.84413E-02; 2.52736E+00; 1.10903E+02
 8.98844E+01; 2.87054E-03; 7.58461E-02; 2.52769E+00; 1.10903E+02
 8.99844E+01; 2.69127E-03; 7.66291E-02; 2.52827E+00; 1.10903E+02
 9.00844E+01; 2.70723E-03; 7.91412E-02; 2.52897E+00; 1.10903E+02
 9.01844E+01; 2.97440E-03; 7.96772E-02; 2.52963E+00; 1.10903E+02
 9.02844E+01; 3.56738E-03; 7.90675E-02; 2.53003E+00; 1.10903E+02
 9.03844E+01; 4.00221E-03; 7.88170E-02; 2.53040E+00; 1.10903E+02
 9.04844E+01; 4.31343E-03; 7.88157E-02; 2.53081E+00; 1.10903E+02
 9.05844E+01; 4.27084E-03; 7.75272E-02; 2.53115E+00; 1.10903E+02
 9.06844E+01; 3.83511E-03; 7.56158E-02; 2.53157E+00; 1.10903E+02
 9.07844E+01; 3.12348E-03; 7.26757E-02; 2.53206E+00; 1.10903E+02
 9.08844E+01; 2.12552E-03; 6.93736E-02; 2.53256E+00; 1.10903E+02
 9.09844E+01; 1.31789E-03; 6.94403E-02; 2.53320E+00; 1.10903E+02
 9.10844E+01; 7.88218E-04; 7.11836E-02; 2.53373E+00; 1.10903E+02
 9.11844E+01; 5.41678E-04; 7.32614E-02; 2.53414E+00; 1.10903E+02
 9.12844E+01; 5.68025E-04; 7.56071E-02; 2.53457E+00; 1.10903E+02
 9.13844E+01; 5.86340E-04; 7.65685E-02; 2.53481E+00; 1.10903E+02
 9.14844E+01; 5.49206E-04; 7.68688E-02; 2.53501E+00; 1.10903E+02
 9.15844E+01; 4.92843E-04; 7.95243E-02; 2.53538E+00; 1.10903E+02
 9.16844E+01; 3.57830E-04; 8.34173E-02; 2.53576E+00; 1.10903E+02
 9.17844E+01; 4.68154E-04; 8.00742E-02; 2.53610E+00; 1.10903E+02
 9.18844E+01; 8.26452E-04; 7.30791E-02; 2.53625E+00; 1.10903E+02
 9.19844E+01; 9.52617E-04; 7.03589E-02; 2.53639E+00; 1.10903E+02
 9.20844E+01; 8.54363E-04; 6.98960E-02; 2.53670E+00; 1.10903E+02
 9.21844E+01; 5.03982E-04; 7.32308E-02; 2.53701E+00; 1.10903E+02
 9.22844E+01;-4.46388E-04; 7.83045E-02; 2.53692E+00; 1.10903E+02
 9.23844E+01;-8.15648E-04; 8.01516E-02; 2.53664E+00; 1.10903E+02
 9.24844E+01;-1.24575E-04; 8.05031E-02; 2.53632E+00; 1.10903E+02
 9.25844E+01; 2.24384E-04; 8.21079E-02; 2.53611E+00; 1.10903E+02
 9.26844E+01;-7.06889E-05; 8.42901E-02; 2.53606E+00; 1.10903E+02
 9.27844E+01; 1.15346E-05; 8.37291E-02; 2.53610E+00; 1.10903E+02
 9.28844E+01; 5.67120E-04; 8.18181E-02; 2.53626E+00; 1.10903E+02
 9.29844E+01; 9.98548E-04; 8.13298E-02; 2.53664E+00; 1.10903E+02
 9.30844E+01; 8.37402E-04; 8.16943E-02; 2.53759E+00; 1.10903E+02
 9.31844E+01; 1.06104E-03; 7.39753E-02; 2.53874E+00; 1.10903E+02
 9.32844E+01; 2.02522E-03; 6.13753E-02; 2.53979E+00; 1.10903E+02
 9.33844E+01; 2.25547E-03; 5.81068E-02; 2.54056E+00; 1.10903E+02
 9.34844E+01; 1.87527E-03; 5.95761E-02; 2.54101E+00; 1.10903E+02
 9.35844E+01; 1.70817E-03; 6.11619E-02; 2.54138E+00; 1.10903E+02
 9.36844E+01; 1.66230E-03; 6.25689E-02; 2.54198E+00; 1.10903E+02
 9.37844E+01; 1.26458E-03; 6.74260E-02; 2.54257E+00; 1.10903E+02
 9.38844E+01; 5.52408E-04; 7.38113E-02; 2.54284E+00; 1.10903E+02
 9.39844E+01;-3.38306E-05; 7.49365E-02; 2.54298E+00; 1.10903E+02
 9.40844E+01;-4.46950E-04; 7.33333E-02; 2.54298E+00; 1.10903E+02
 9.41844E+01;-1.22054E-03; 7.04485E-02; 2.54314E+00; 1.10903E+02
 9.42844E+01;-2.57923E-03; 6.70537E-02; 2.54416E+00; 1.10903E+02
 9.43844E+01;-3.88900E-03; 6.62271E-02; 2.54570E+00; 1.10903E+02
 9.44844E+01;-4.71539E-03; 6.67424E-02; 2.54643E+00; 1.10903E+02
 9.45844E+01;-6.25669E-03; 5.65586E-02; 2.54642E+00; 1.10903E+02
 9.46844E+01;-8.17462E-03; 3.76712E-02; 2.54623E+00; 1.10903E+02
 9.47844E+01;-8.59453E-03; 4.34528E-02; 2.54658E+00; 1.10903E+02
 9.48844E+01;-7.61924E-03; 6.03777E-02; 2.54736E+00; 1.10903E+02
 9.49844E+01;-6.93949E-03; 6.93925E-02; 2.54803E+00; 1.10903E+02
 9.50844E+01;-6.38907E-03; 7.43269E-02; 2.54840E+00; 1.10903E+02
 9.51844E+01;-5.95330E-03; 7.57707E-02; 2.54855E+00; 1.10903E+02
 9.52844E+01;-5.60341E-03; 7.54630E-02; 2.54859E+00; 1.10903E+02
 9.53844E+01;-5.29153E-03; 7.55413E-02; 2.54861E+00; 1.10903E+02
 9.54844E+01;-5.02858E-03; 7.59216E-02; 2.54852E+00; 1.10903E+02
 9.55844E+01;-4.72571E-03; 7.58659E-02; 2.54842E+00; 1.10903E+02
 9.56844E+01;-4.37074E-03; 7.57522E-02; 2.54838E+00; 1.10903E+02
 9.57844E+01;-4.09853E-03; 7.59505E-02; 2.54836E+00; 1.10903E+02
 9.58844E+01;-3.88606E-03; 7.62547E-02; 2.54821E+00; 1.10903E+02
 9.59844E+01;-3.63460E-03; 7.63367E-02; 2.54815E+00; 1.10903E+02
 9.60844E+01;-3.34538E-03; 7.64607E-02; 2.54820E+00; 1.10903E+02
 9.61844E+01;-3.08036E-03; 7.66911E-02; 2.54800E+00; 1.10903E+02
 9.62844E+01;-2.87031E-03; 7.69587E-02; 2.54753E+00; 1.10903E+02
 9.63844E+01;-2.65853E-03; 7.69446E-02; 2.54704E+00; 1.10903E+02
 9.64844E+01;-2.44710E-03; 7.68002E-02; 2.54665E+00; 1.10903E+02
 9.65844E+01;-2.26319E-03; 7.65805E-02; 2.54572E+00; 1.10903E+02
 9.66844E+01;-2.10323E-03; 7.63283E-02; 2.54424E+00; 1.10903E+02
 9.67844E+01;-1.95273E-03; 7.58442E-02; 2.54187E+00; 1.10903E+02
 9.68844E+01;-1.82446E-03; 7.52604E-02; 2.53826E+00; 1.10903E+02
 9.69844E+01;-1.67671E-03; 7.52576E-02; 2.53382E+00; 1.10903E+02
 9.70844E+01;-1.51171E-03; 7.56219E-02; 2.52870E+00; 1.10903E+02
 9.71844E+01;-1.35533E-03; 7.62121E-02; 2.52285E+00; 1.10903E+02
 9.72844E+01;-1.22112E-03; 7.68922E-02; 2.51628E+00; 1.10903E+02
 9.73844E+01;-1.10828E-03; 7.63013E-02; 2.50853E+00; 1.10903E+02
 9.74844E+01;-1.02929E-03; 7.50254E-02; 2.49987E+00; 1.10903E+02
 9.75844E+01;-9.62725E-04; 7.53826E-02; 2.49346E+00; 1.10903E+02
 9.76844E+01;-9.27535E-04; 7.64277E-02; 2.48937E+00; 1.10903E+02
 9.77844E+01;-9.01068E-04; 7.65972E-02; 2.48465E+00; 1.10903E+02
 9.78844E+01;-8.49212E-04; 7.62363E-02; 2.47948E+00; 1.10903E+02
 9.79844E+01;-8.13937E-04; 7.62004E-02; 2.47462E+00; 1.10903E+02
 9.80844E+01;-8.08269E-04; 7.63133E-02; 2.47007E+00; 1.10903E+02
 9.81844E+01;-7.41483E-04; 7.64414E-02; 2.46524E+00; 1.10903E+02
 9.82844E+01;-6.36340E-04; 7.67160E-02; 2.45997E+00; 1.10903E+02
 9.83844E+01;-5.44791E-04; 7.62556E-02; 2.45489E+00; 1.10903E+02
 9.84844E+01;-4.46119E-04; 7.54763E-02; 2.45005E+00; 1.10903E+02
 9.85844E+01;-3.73081E-04; 7.56752E-02; 2.44734E+00; 1.10903E+02
 9.86844E+01;-3.17751E-04; 7.64453E-02; 2.44659E+00; 1.10903E+02
 9.87844E+01;-2.79613E-04; 7.64376E-02; 2.44597E+00; 1.10903E+02
 9.88844E+01;-2.71959E-04; 7.59634E-02; 2.44539E+00; 1.10903E+02
 9.89844E+01;-3.24335E-04; 7.51008E-02; 2.44473E+00; 1.10903E+02
 9.90844E+01;-4.66745E-04; 7.42188E-02; 2.44384E+00; 1.10903E+02
 9.91844E+01;-4.94561E-04; 7.40203E-02; 2.44315E+00; 1.10903E+02
 9.92844E+01;-3.99357E-04; 7.41011E-02; 2.44262E+00; 1.10903E+02
 9.93844E+01;-5.17619E-04; 7.55618E-02; 2.44209E+00; 1.10903E+02
 9.94844E+01;-8.28166E-04; 7.78750E-02; 2.44158E+00; 1.10903E+02
 9.95844E+01;-7.08223E-04; 7.40772E-02; 2.44088E+00; 1.10903E+02
 9.96844E+01;-1.03981E-04; 6.70943E-02; 2.44043E+00; 1.10903E+02
 9.97844E+01; 2.78355E-04; 6.86273E-02; 2.44060E+00; 1.10903E+02
 9.98844E+01; 3.48932E-04; 7.44438E-02; 2.44076E+00; 1.10903E+02
 9.99844E+01; 3.60786E-04; 7.63124E-02; 2.44054E+00; 1.10903E+02
 1.00084E+02; 3.70058E-04; 7.59893E-02; 2.44051E+00; 1.10903E+02
 1.00184E+02;-6.37645E-04; 6.97805E-02; 2.44009E+00; 1.10903E+02
 1.00284E+02;-2.63819E-03; 5.67270E-02; 2.43944E+00; 1.10903E+02
 1.00384E+02;-3.39658E-03; 5.60620E-02; 2.43909E+00; 1.10903E+02
 1.00484E+02;-1.88383E-03; 6.69290E-02; 2.43829E+00; 1.10903E+02
 1.00584E+02;-7.33592E-04; 7.56036E-02; 2.44015E+00; 1.10903E+02
 1.00684E+02; 1.19766E-04; 8.34469E-02; 2.44417E+00; 1.10903E+02
 1.00784E+02; 2.95039E-04; 9.99533E-02; 2.45065E+00; 1.10903E+02
 1.00884E+02;-5.57059E-04; 1.16594E-01; 2.45965E+00; 1.10903E+02
 1.00984E+02;-1.51164E-03; 1.34041E-01; 2.46990E+00; 1.10903E+02
 1.01084E+02;-2.26801E-03; 1.59061E-01; 2.48155E+00; 1.10903E+02
 1.01184E+02;-5.00500E-03; 1.79808E-01; 2.49279E+00; 1.10903E+02
 1.01284E+02;-9.48763E-03; 1.97002E-01; 2.50243E+00; 1.10903E+02
 1.01384E+02;-1.07542E-02; 2.04389E-01; 2.51123E+00; 1.10903E+02
 1.01484E+02;-7.80616E-03; 2.04443E-01; 2.52016E+00; 1.10903E+02
 1.01584E+02;-4.48029E-03; 2.08699E-01; 2.52846E+00; 1.10903E+02
 1.01684E+02;-1.10669E-03; 2.15715E-01; 2.53682E+00; 1.10903E+02
 1.01784E+02; 1.13901E-03; 2.15515E-01; 2.54504E+00; 1.10903E+02
 1.01884E+02; 2.34658E-03; 2.13019E-01; 2.55145E+00; 1.10903E+02
 1.01984E+02; 4.40902E-03; 2.21855E-01; 2.55617E+00; 1.10903E+02
 1.02084E+02; 7.05497E-03; 2.22905E-01; 2.55987E+00; 1.10903E+02
 1.02184E+02; 7.57197E-03; 2.30599E-01; 2.56374E+00; 1.10903E+02
 1.02284E+02; 5.93186E-03; 2.46126E-01; 2.56874E+00; 1.10903E+02
 1.02384E+02; 7.58753E-03; 2.22615E-01; 2.57282E+00; 1.10903E+02
 1.02484E+02; 1.38375E-02; 1.89029E-01; 2.57569E+00; 1.10903E+02
 1.02584E+02; 1.60543E-02; 1.90497E-01; 2.57700E+00; 1.10903E+02
 1.02684E+02; 1.66931E-02; 1.93419E-01; 2.57667E+00; 1.10903E+02
 1.02784E+02; 1.75905E-02; 1.67095E-01; 2.57499E+00; 1.10903E+02
 1.02884E+02; 1.86825E-02; 1.10898E-01; 2.57322E+00; 1.10903E+02
 1.02984E+02; 1.87119E-02; 8.85642E-02; 2.57395E+00; 1.10903E+02
 1.03084E+02; 1.83426E-02; 9.26881E-02; 2.57553E+00; 1.10903E+02
 1.03184E+02; 1.80601E-02; 9.56560E-02; 2.57707E+00; 1.10903E+02
 1.03284E+02; 1.76325E-02; 9.64705E-02; 2.57862E+00; 1.10903E+02
 1.03384E+02; 1.72215E-02; 9.66021E-02; 2.57988E+00; 1.10903E+02
 1.03484E+02; 1.68333E-02; 9.64999E-02; 2.58092E+00; 1.10903E+02
 1.03584E+02; 1.64258E-02; 9.60643E-02; 2.58197E+00; 1.10903E+02
 1.03684E+02; 1.60206E-02; 9.56161E-02; 2.58323E+00; 1.10903E+02
 1.03784E+02; 1.57252E-02; 9.53931E-02; 2.58460E+00; 1.10903E+02
 1.03884E+02; 1.55287E-02; 9.54200E-02; 2.58587E+00; 1.10903E+02
 1.03984E+02; 1.52206E-02; 9.49019E-02; 2.58703E+00; 1.10903E+02
 1.04084E+02; 1.48097E-02; 9.42589E-02; 2.58793E+00; 1.10903E+02
 1.04184E+02; 1.44088E-02; 9.47842E-02; 2.58902E+00; 1.10903E+02
 1.04284E+02; 1.40455E-02; 9.58339E-02; 2.59056E+00; 1.10903E+02
 1.04384E+02; 1.37881E-02; 9.58556E-02; 2.59186E+00; 1.10903E+02
 1.04484E+02; 1.36415E-02; 9.54382E-02; 2.59283E+00; 1.10903E+02
 1.04584E+02; 1.34365E-02; 9.54889E-02; 2.59380E+00; 1.10903E+02
 1.04684E+02; 1.31770E-02; 9.58497E-02; 2.59483E+00; 1.10903E+02
 1.04784E+02; 1.29867E-02; 9.63205E-02; 2.59581E+00; 1.10903E+02
 1.04884E+02; 1.28611E-02; 9.67333E-02; 2.59689E+00; 1.10903E+02
 1.04984E+02; 1.27970E-02; 9.67105E-02; 2.59795E+00; 1.10903E+02
 1.05084E+02; 1.28020E-02; 9.64736E-02; 2.59897E+00; 1.10903E+02
 1.05184E+02; 1.27536E-02; 9.59304E-02; 2.59984E+00; 1.10903E+02
 1.05284E+02; 1.26547E-02; 9.52783E-02; 2.60042E+00; 1.10903E+02
 1.05384E+02; 1.25355E-02; 9.50351E-02; 2.60114E+00; 1.10903E+02
 1.05484E+02; 1.23821E-02; 9.51198E-02; 2.60196E+00; 1.10903E+02
 1.05584E+02; 1.22660E-02; 9.57149E-02; 2.60295E+00; 1.10903E+02
 1.05684E+02; 1.21832E-02; 9.66504E-02; 2.60406E+00; 1.10903E+02
 1.05784E+02; 1.20921E-02; 9.64865E-02; 2.60490E+00; 1.10903E+02
 1.05884E+02; 1.20069E-02; 9.58774E-02; 2.60556E+00; 1.10903E+02
 1.05984E+02; 1.18991E-02; 9.55286E-02; 2.60625E+00; 1.10903E+02
 1.06084E+02; 1.17709E-02; 9.52597E-02; 2.60704E+00; 1.10903E+02
 1.06184E+02; 1.16573E-02; 9.48891E-02; 2.60783E+00; 1.10903E+02
 1.06284E+02; 1.15909E-02; 9.44871E-02; 2.60891E+00; 1.10903E+02
 1.06384E+02; 1.15473E-02; 9.46066E-02; 2.60976E+00; 1.10903E+02
 1.06484E+02; 1.15184E-02; 9.50790E-02; 2.61041E+00; 1.10903E+02
 1.06584E+02; 1.14918E-02; 9.54692E-02; 2.61102E+00; 1.10903E+02
 1.06684E+02; 1.14810E-02; 9.57118E-02; 2.61158E+00; 1.10903E+02
 1.06784E+02; 1.14581E-02; 9.56209E-02; 2.61213E+00; 1.10903E+02
 1.06884E+02; 1.14104E-02; 9.53981E-02; 2.61277E+00; 1.10903E+02
 1.06984E+02; 1.13789E-02; 9.48821E-02; 2.61338E+00; 1.10903E+02
 1.07084E+02; 1.13620E-02; 9.43795E-02; 2.61428E+00; 1.10903E+02
 1.07184E+02; 1.13002E-02; 9.45760E-02; 2.61520E+00; 1.10903E+02
 1.07284E+02; 1.12149E-02; 9.51887E-02; 2.61590E+00; 1.10903E+02
 1.07384E+02; 1.11683E-02; 9.57673E-02; 2.61653E+00; 1.10903E+02
 1.07484E+02; 1.11526E-02; 9.61941E-02; 2.61695E+00; 1.10903E+02
 1.07584E+02; 1.11094E-02; 9.61690E-02; 2.61731E+00; 1.10903E+02
 1.07684E+02; 1.10417E-02; 9.60596E-02; 2.61775E+00; 1.10903E+02
 1.07784E+02; 1.09513E-02; 9.55959E-02; 2.61820E+00; 1.10903E+02
 1.07884E+02; 1.08251E-02; 9.50018E-02; 2.61898E+00; 1.10903E+02
 1.07984E+02; 1.07001E-02; 9.47599E-02; 2.61955E+00; 1.10903E+02
 1.08084E+02; 1.06294E-02; 9.48035E-02; 2.61995E+00; 1.10903E+02
 1.08184E+02; 1.06228E-02; 9.53184E-02; 2.62024E+00; 1.10903E+02
 1.08284E+02; 1.06694E-02; 9.59113E-02; 2.62058E+00; 1.10903E+02
 1.08384E+02; 1.06813E-02; 9.58317E-02; 2.62092E+00; 1.10903E+02
 1.08484E+02; 1.06660E-02; 9.53447E-02; 2.62137E+00; 1.10903E+02
 1.08584E+02; 1.06770E-02; 9.41435E-02; 2.62181E+00; 1.10903E+02
 1.08684E+02; 1.07122E-02; 9.26166E-02; 2.62238E+00; 1.10903E+02
 1.08784E+02; 1.06862E-02; 9.28667E-02; 2.62298E+00; 1.10903E+02
 1.08884E+02; 1.06223E-02; 9.40361E-02; 2.62344E+00; 1.10903E+02
 1.08984E+02; 1.05824E-02; 9.48399E-02; 2.62395E+00; 1.10903E+02
 1.09084E+02; 1.05454E-02; 9.53513E-02; 2.62434E+00; 1.10903E+02
 1.09184E+02; 1.05107E-02; 9.53170E-02; 2.62471E+00; 1.10903E+02
 1.09284E+02; 1.04916E-02; 9.51858E-02; 2.62515E+00; 1.10903E+02
 1.09384E+02; 1.04600E-02; 9.52551E-02; 2.62558E+00; 1.10903E+02
 1.09484E+02; 1.04015E-02; 9.53893E-02; 2.62601E+00; 1.10903E+02
 1.09584E+02; 1.03102E-02; 9.56954E-02; 2.62643E+00; 1.10903E+02
 1.09684E+02; 1.01689E-02; 9.60791E-02; 2.62663E+00; 1.10903E+02
 1.09784E+02; 1.00421E-02; 9.57533E-02; 2.62679E+00; 1.10903E+02
 1.09884E+02; 9.96346E-03; 9.49716E-02; 2.62716E+00; 1.10903E+02
 1.09984E+02; 9.96331E-03; 9.47993E-02; 2.62756E+00; 1.10903E+02
 1.10084E+02; 1.00176E-02; 9.50313E-02; 2.62796E+00; 1.10903E+02
 1.10184E+02; 1.00826E-02; 9.52501E-02; 2.62814E+00; 1.10903E+02
 1.10284E+02; 1.01570E-02; 9.56012E-02; 2.62800E+00; 1.10903E+02
 1.10384E+02; 1.01448E-02; 9.56409E-02; 2.62804E+00; 1.10903E+02
 1.10484E+02; 1.00530E-02; 9.55368E-02; 2.62826E+00; 1.10903E+02
 1.10584E+02; 1.00463E-02; 9.54484E-02; 2.62849E+00; 1.10903E+02
 1.10684E+02; 1.01353E-02; 9.55078E-02; 2.62851E+00; 1.10903E+02
 1.10784E+02; 1.02018E-02; 9.56382E-02; 2.62874E+00; 1.10903E+02
 1.10884E+02; 1.02478E-02; 9.57562E-02; 2.62915E+00; 1.10903E+02
 1.10984E+02; 1.02550E-02; 9.55541E-02; 2.62935E+00; 1.10903E+02
 1.11084E+02; 1.02103E-02; 9.52531E-02; 2.62935E+00; 1.10903E+02
 1.11184E+02; 1.01415E-02; 9.49017E-02; 2.62934E+00; 1.10903E+02
 1.11284E+02; 1.00497E-02; 9.44939E-02; 2.62966E+00; 1.10903E+02
 1.11384E+02; 1.00176E-02; 9.41903E-02; 2.63000E+00; 1.10903E+02
 1.11484E+02; 1.00409E-02; 9.39190E-02; 2.63045E+00; 1.10903E+02
 1.11584E+02; 1.00489E-02; 9.46731E-02; 2.63077E+00; 1.10903E+02
 1.11684E+02; 1.00292E-02; 9.59708E-02; 2.63096E+00; 1.10903E+02
 1.11784E+02; 9.97077E-03; 9.58916E-02; 2.63111E+00; 1.10903E+02
 1.11884E+02; 9.86283E-03; 9.50901E-02; 2.63125E+00; 1.10903E+02
 1.11984E+02; 9.78788E-03; 9.48897E-02; 2.63143E+00; 1.10903E+02
 1.12084E+02; 9.74293E-03; 9.50925E-02; 2.63173E+00; 1.10903E+02
 1.12184E+02; 9.82608E-03; 9.51374E-02; 2.63201E+00; 1.10903E+02
 1.12284E+02; 1.00151E-02; 9.52011E-02; 2.63197E+00; 1.10903E+02
 1.12384E+02; 1.00827E-02; 9.58687E-02; 2.63189E+00; 1.10903E+02
 1.12484E+02; 1.00406E-02; 9.69566E-02; 2.63200E+00; 1.10903E+02
 1.12584E+02; 9.97450E-03; 9.65987E-02; 2.63207E+00; 1.10903E+02
 1.12684E+02; 9.91351E-03; 9.54768E-02; 2.63195E+00; 1.10903E+02
 1.12784E+02; 9.94234E-03; 9.52273E-02; 2.63188E+00; 1.10903E+02
 1.12884E+02; 1.00491E-02; 9.53386E-02; 2.63210E+00; 1.10903E+02
 1.12984E+02; 1.00763E-02; 9.52624E-02; 2.63232E+00; 1.10903E+02
 1.13084E+02; 1.00090E-02; 9.51020E-02; 2.63225E+00; 1.10903E+02
 1.13184E+02; 9.95211E-03; 9.49385E-02; 2.63218E+00; 1.10903E+02
 1.13284E+02; 9.93908E-03; 9.48801E-02; 2.63222E+00; 1.10903E+02
 1.13384E+02; 9.94032E-03; 9.50079E-02; 2.63227E+00; 1.10903E+02
 1.13484E+02; 9.95497E-03; 9.52035E-02; 2.63221E+00; 1.10903E+02
 1.13584E+02; 9.91462E-03; 9.51744E-02; 2.63225E+00; 1.10903E+02
 1.13684E+02; 9.82373E-03; 9.50673E-02; 2.63241E+00; 1.10903E+02
 1.13784E+02; 9.79191E-03; 9.47827E-02; 2.63248E+00; 1.10903E+02
 1.13884E+02; 9.81623E-03; 9.45093E-02; 2.63226E+00; 1.10903E+02
 1.13984E+02; 9.83765E-03; 9.42985E-02; 2.63204E+00; 1.10903E+02
 1.14084E+02; 9.86956E-03; 9.42513E-02; 2.63214E+00; 1.10903E+02
 1.14184E+02; 9.91333E-03; 9.42550E-02; 2.63242E+00; 1.10903E+02
 1.14284E+02; 9.98202E-03; 9.44209E-02; 2.63289E+00; 1.10903E+02
 1.14384E+02; 1.00223E-02; 9.44737E-02; 2.63314E+00; 1.10903E+02
 1.14484E+02; 1.00344E-02; 9.45985E-02; 2.63307E+00; 1.10903E+02
 1.14584E+02; 1.00984E-02; 9.45433E-02; 2.63301E+00; 1.10903E+02
 1.14684E+02; 1.02099E-02; 9.44310E-02; 2.63287E+00; 1.10903E+02
 1.14784E+02; 1.02854E-02; 9.44205E-02; 2.63285E+00; 1.10903E+02
 1.14884E+02; 1.03285E-02; 9.44378E-02; 2.63290E+00; 1.10903E+02
 1.14984E+02; 1.03455E-02; 9.50833E-02; 2.63293E+00; 1.10903E+02
 1.15084E+02; 1.03230E-02; 9.60469E-02; 2.63283E+00; 1.10903E+02
 1.15184E+02; 1.03015E-02; 9.60315E-02; 2.63269E+00; 1.10903E+02
 1.15284E+02; 1.02809E-02; 9.54637E-02; 2.63287E+00; 1.10903E+02
 1.15384E+02; 1.02272E-02; 9.53014E-02; 2.63306E+00; 1.10903E+02
 1.15484E+02; 1.01504E-02; 9.54542E-02; 2.63297E+00; 1.10903E+02
 1.15584E+02; 1.01252E-02; 9.50697E-02; 2.63286E+00; 1.10903E+02
 1.15684E+02; 1.01298E-02; 9.44738E-02; 2.63286E+00; 1.10903E+02
 1.15784E+02; 1.01343E-02; 9.50410E-02; 2.63289E+00; 1.10903E+02
 1.15884E+02; 1.01395E-02; 9.61243E-02; 2.63291E+00; 1.10903E+02
 1.15984E+02; 1.01302E-02; 9.60912E-02; 2.63287E+00; 1.10903E+02
 1.16084E+02; 1.01217E-02; 9.54221E-02; 2.63284E+00; 1.10903E+02
 1.16184E+02; 1.01068E-02; 9.50677E-02; 2.63284E+00; 1.10903E+02
 1.16284E+02; 1.01054E-02; 9.48554E-02; 2.63316E+00; 1.10903E+02
 1.16384E+02; 1.01624E-02; 9.48072E-02; 2.63347E+00; 1.10903E+02
 1.16484E+02; 1.02518E-02; 9.49567E-02; 2.63384E+00; 1.10903E+02
 1.16584E+02; 1.03228E-02; 9.51404E-02; 2.63401E+00; 1.10903E+02
 1.16684E+02; 1.03826E-02; 9.53461E-02; 2.63385E+00; 1.10903E+02
 1.16784E+02; 1.03665E-02; 9.51705E-02; 2.63370E+00; 1.10903E+02
 1.16884E+02; 1.02553E-02; 9.48193E-02; 2.63338E+00; 1.10903E+02
 1.16984E+02; 1.02223E-02; 9.47514E-02; 2.63309E+00; 1.10903E+02
 1.17084E+02; 1.02623E-02; 9.49316E-02; 2.63294E+00; 1.10903E+02
 1.17184E+02; 9.51777E-03; 8.80670E-02; 2.63294E+00; 1.10903E+02
 1.17284E+02; 7.91973E-03; 8.11977E-02; 2.63296E+00; 1.10903E+02
 1.17384E+02; 7.88652E-03; 1.08518E-01; 2.63290E+00; 1.10903E+02
 1.17484E+02; 9.83225E-03; 1.59822E-01; 2.63338E+00; 1.10903E+02
 1.17584E+02; 1.01823E-02; 1.57150E-01; 2.63252E+00; 1.10903E+02
 1.17684E+02; 9.65913E-03; 1.28775E-01; 2.63046E+00; 1.10903E+02
 1.17784E+02; 9.64973E-03; 8.61485E-02; 2.62905E+00; 1.10903E+02
 1.17884E+02; 1.04247E-02; 3.83752E-02; 2.62943E+00; 1.10903E+02
 1.17984E+02; 1.02821E-02; 4.35486E-02; 2.63216E+00; 1.10903E+02
 1.18084E+02; 9.18627E-03; 6.74933E-02; 2.63515E+00; 1.10903E+02
 1.18184E+02; 9.21287E-03; 9.47737E-02; 2.63767E+00; 1.10903E+02
 1.18284E+02; 9.56514E-03; 1.18460E-01; 2.63928E+00; 1.10903E+02
 1.18384E+02; 8.40660E-03; 1.15369E-01; 2.63904E+00; 1.10903E+02
 1.18484E+02; 4.94953E-03; 8.67366E-02; 2.63848E+00; 1.10903E+02
 1.18584E+02; 4.12143E-03; 8.22103E-02; 2.64014E+00; 1.10903E+02
 1.18684E+02; 5.26488E-03; 8.84273E-02; 2.64249E+00; 1.10903E+02
 1.18784E+02; 6.22706E-03; 8.66499E-02; 2.64368E+00; 1.10903E+02
 1.18884E+02; 7.21441E-03; 8.12311E-02; 2.64430E+00; 1.10903E+02
 1.18984E+02; 8.12140E-03; 8.30536E-02; 2.64557E+00; 1.10903E+02
 1.19084E+02; 8.86878E-03; 8.77058E-02; 2.64632E+00; 1.10903E+02
 1.19184E+02; 9.51357E-03; 9.02482E-02; 2.64638E+00; 1.10903E+02
 1.19284E+02; 1.00870E-02; 9.16552E-02; 2.64621E+00; 1.10903E+02
 1.19384E+02; 1.05980E-02; 9.22910E-02; 2.64592E+00; 1.10903E+02
 1.19484E+02; 1.10176E-02; 9.26143E-02; 2.64575E+00; 1.10903E+02
 1.19584E+02; 1.14178E-02; 9.25325E-02; 2.64535E+00; 1.10903E+02
 1.19684E+02; 1.17972E-02; 9.22764E-02; 2.64462E+00; 1.10903E+02
 1.19784E+02; 1.22268E-02; 9.22366E-02; 2.64409E+00; 1.10903E+02
 1.19884E+02; 1.27191E-02; 9.24311E-02; 2.64376E+00; 1.10903E+02
 1.19984E+02; 1.30519E-02; 9.15765E-02; 2.64338E+00; 1.10903E+02
 1.20084E+02; 1.32553E-02; 9.01467E-02; 2.64295E+00; 1.10903E+02
 1.20184E+02; 1.64867E-02; 1.09076E-01; 2.64316E+00; 1.10903E+02
 1.20284E+02; 2.33345E-02; 1.37149E-01; 2.64384E+00; 1.10903E+02
 1.20384E+02; 2.28777E-02; 1.10520E-01; 2.64312E+00; 1.10903E+02
 1.20484E+02; 1.66845E-02; 5.08618E-02; 2.64176E+00; 1.10903E+02
 1.20584E+02; 1.45859E-02; 4.93049E-02; 2.64194E+00; 1.10903E+02
 1.20684E+02; 2.52746E-02; 8.97491E-02; 2.64248E+00; 1.10903E+02
 1.20784E+02; 2.76670E-02; 1.09073E-01; 2.64098E+00; 1.10903E+02
 1.20884E+02; 2.67209E-02; 1.23571E-01; 2.63905E+00; 1.10903E+02
 1.20984E+02; 2.56717E-02; 1.24652E-01; 2.63744E+00; 1.10903E+02
 1.21084E+02; 2.65629E-02; 1.18034E-01; 2.63564E+00; 1.10903E+02
 1.21184E+02; 2.72235E-02; 1.09142E-01; 2.63361E+00; 1.10903E+02
 1.21284E+02; 2.69729E-02; 9.99092E-02; 2.63237E+00; 1.10903E+02
 1.21384E+02; 2.51787E-02; 9.47280E-02; 2.63178E+00; 1.10903E+02
 1.21484E+02; 2.23695E-02; 9.68526E-02; 2.63124E+00; 1.10903E+02
 1.21584E+02; 2.06762E-02; 1.10454E-01; 2.63053E+00; 1.10903E+02
 1.21684E+02; 2.03350E-02; 1.24054E-01; 2.62951E+00; 1.10903E+02
 1.21784E+02; 2.00800E-02; 1.18100E-01; 2.62784E+00; 1.10903E+02
 1.21884E+02; 2.03279E-02; 1.09413E-01; 2.62642E+00; 1.10903E+02
 1.21984E+02; 2.01944E-02; 9.88674E-02; 2.62549E+00; 1.10903E+02
 1.22084E+02; 1.92542E-02; 9.27406E-02; 2.62533E+00; 1.10903E+02
 1.22184E+02; 1.88839E-02; 9.40385E-02; 2.62533E+00; 1.10903E+02
 1.22284E+02; 1.95912E-02; 9.91114E-02; 2.62539E+00; 1.10903E+02
 1.22384E+02; 2.27307E-02; 1.01791E-01; 2.62492E+00; 1.10903E+02
 1.22484E+02; 2.81700E-02; 1.09278E-01; 2.62301E+00; 1.10903E+02
 1.22584E+02; 3.18888E-02; 1.12213E-01; 2.61951E+00; 1.10903E+02
 1.22684E+02; 3.28362E-02; 1.16912E-01; 2.61658E+00; 1.10903E+02
 1.22784E+02; 3.09123E-02; 1.03711E-01; 2.61470E+00; 1.10903E+02
 1.22884E+02; 2.70284E-02; 8.76562E-02; 2.61362E+00; 1.10903E+02
 1.22984E+02; 2.80669E-02; 9.18251E-02; 2.61312E+00; 1.10903E+02
 1.23084E+02; 3.32830E-02; 1.05053E-01; 2.61270E+00; 1.10903E+02
 1.23184E+02; 3.73473E-02; 1.09467E-01; 2.61167E+00; 1.10903E+02
 1.23284E+02; 4.01222E-02; 1.09336E-01; 2.61008E+00; 1.10903E+02
 1.23384E+02; 4.17407E-02; 1.07068E-01; 2.60825E+00; 1.10903E+02
 1.23484E+02; 4.23198E-02; 1.03994E-01; 2.60629E+00; 1.10903E+02
 1.23584E+02; 4.19577E-02; 1.00434E-01; 2.60444E+00; 1.10903E+02
 1.23684E+02; 4.07329E-02; 9.67970E-02; 2.60280E+00; 1.10903E+02
 1.23784E+02; 3.94930E-02; 9.23708E-02; 2.60102E+00; 1.10903E+02
 1.23884E+02; 3.82961E-02; 8.99786E-02; 2.59976E+00; 1.10903E+02
 1.23984E+02; 3.71876E-02; 8.87914E-02; 2.59872E+00; 1.10903E+02
 1.24084E+02; 3.61334E-02; 8.88490E-02; 2.59773E+00; 1.10903E+02
 1.24184E+02; 3.51505E-02; 8.86635E-02; 2.59685E+00; 1.10903E+02
 1.24284E+02; 3.42888E-02; 8.82523E-02; 2.59626E+00; 1.10903E+02
 1.24384E+02; 3.34614E-02; 8.84539E-02; 2.59578E+00; 1.10903E+02
 1.24484E+02; 3.26048E-02; 8.94080E-02; 2.59534E+00; 1.10903E+02
 1.24584E+02; 3.17559E-02; 8.92912E-02; 2.59494E+00; 1.10903E+02
 1.24684E+02; 3.09531E-02; 8.81990E-02; 2.59482E+00; 1.10903E+02
 1.24784E+02; 3.02514E-02; 8.74082E-02; 2.59481E+00; 1.10903E+02
 1.24884E+02; 2.96217E-02; 8.69800E-02; 2.59472E+00; 1.10903E+02
 1.24984E+02; 2.90361E-02; 8.69893E-02; 2.59469E+00; 1.10903E+02
 1.25084E+02; 2.84668E-02; 8.71180E-02; 2.59491E+00; 1.10903E+02
 1.25184E+02; 2.79278E-02; 8.71369E-02; 2.59516E+00; 1.10903E+02
 1.25284E+02; 2.74001E-02; 8.68858E-02; 2.59543E+00; 1.10903E+02
 1.25384E+02; 2.68918E-02; 8.70806E-02; 2.59576E+00; 1.10903E+02
 1.25484E+02; 2.64354E-02; 8.76847E-02; 2.59611E+00; 1.10903E+02
 1.25584E+02; 2.60353E-02; 8.77988E-02; 2.59646E+00; 1.10903E+02
 1.25684E+02; 2.56877E-02; 8.75010E-02; 2.59663E+00; 1.10903E+02
 1.25784E+02; 2.53739E-02; 8.73725E-02; 2.59682E+00; 1.10903E+02
 1.25884E+02; 2.50649E-02; 8.74682E-02; 2.59692E+00; 1.10903E+02
 1.25984E+02; 2.47467E-02; 8.79180E-02; 2.59704E+00; 1.10903E+02
 1.26084E+02; 2.44210E-02; 8.86368E-02; 2.59710E+00; 1.10903E+02
 1.26184E+02; 2.41293E-02; 8.88726E-02; 2.59715E+00; 1.10903E+02
 1.26284E+02; 2.38821E-02; 8.88718E-02; 2.59727E+00; 1.10903E+02
 1.26384E+02; 2.36295E-02; 8.93351E-02; 2.59738E+00; 1.10903E+02
 1.26484E+02; 2.33499E-02; 9.02028E-02; 2.59762E+00; 1.10903E+02
 1.26584E+02; 2.30665E-02; 9.03189E-02; 2.59783E+00; 1.10903E+02
 1.26684E+02; 2.28275E-02; 8.97961E-02; 2.59774E+00; 1.10903E+02
 1.26784E+02; 2.20860E-02; 8.66361E-02; 2.59770E+00; 1.10903E+02
 1.26884E+02; 2.05742E-02; 8.15967E-02; 2.59799E+00; 1.10903E+02
 1.26984E+02; 2.00300E-02; 9.35846E-02; 2.59867E+00; 1.10903E+02
 1.27084E+02; 2.10071E-02; 1.26853E-01; 2.59883E+00; 1.10903E+02
 1.27184E+02; 2.20502E-02; 1.35493E-01; 2.59689E+00; 1.10903E+02
 1.27284E+02; 2.23483E-02; 1.14452E-01; 2.59451E+00; 1.10903E+02
 1.27384E+02; 2.23767E-02; 1.00621E-01; 2.59361E+00; 1.10903E+02
 1.27484E+02; 2.23137E-02; 9.41245E-02; 2.59360E+00; 1.10903E+02
 1.27584E+02; 2.22241E-02; 9.06225E-02; 2.59394E+00; 1.10903E+02
 1.27684E+02; 2.21126E-02; 8.83785E-02; 2.59445E+00; 1.10903E+02
 1.27784E+02; 2.19601E-02; 8.76517E-02; 2.59497E+00; 1.10903E+02
 1.27884E+02; 2.17760E-02; 8.78713E-02; 2.59519E+00; 1.10903E+02
 1.27984E+02; 1.90371E-02; 6.71974E-02; 2.59550E+00; 1.10903E+02
 1.28084E+02; 1.35176E-02; 3.22170E-02; 2.59724E+00; 1.10903E+02
 1.28184E+02; 9.76023E-03; 2.92063E-02; 2.60094E+00; 1.10903E+02
 1.28284E+02; 9.57838E-03; 5.59313E-02; 2.60495E+00; 1.10903E+02
 1.28384E+02; 1.02299E-02; 7.63243E-02; 2.60763E+00; 1.10903E+02
 1.28484E+02; 1.07795E-02; 8.50442E-02; 2.60949E+00; 1.10903E+02
 1.28584E+02; 1.12924E-02; 8.82803E-02; 2.61089E+00; 1.10903E+02
 1.28684E+02; 1.17517E-02; 8.90905E-02; 2.61205E+00; 1.10903E+02
 1.28784E+02; 1.21828E-02; 8.93040E-02; 2.61310E+00; 1.10903E+02
 1.28884E+02; 1.25904E-02; 8.94305E-02; 2.61379E+00; 1.10903E+02
 1.28984E+02; 1.29249E-02; 8.96232E-02; 2.61440E+00; 1.10903E+02
 1.29084E+02; 1.32004E-02; 9.00658E-02; 2.61507E+00; 1.10903E+02
 1.29184E+02; 1.34741E-02; 9.00384E-02; 2.61567E+00; 1.10903E+02
 1.29284E+02; 1.37628E-02; 8.97094E-02; 2.61623E+00; 1.10903E+02
 1.29384E+02; 1.40665E-02; 8.95686E-02; 2.61675E+00; 1.10903E+02
 1.29484E+02; 1.43634E-02; 8.94852E-02; 2.61735E+00; 1.10903E+02
 1.29584E+02; 1.46304E-02; 8.94724E-02; 2.61793E+00; 1.10903E+02
 1.29684E+02; 1.48564E-02; 8.95255E-02; 2.61856E+00; 1.10903E+02
 1.29784E+02; 1.50407E-02; 8.95223E-02; 2.61916E+00; 1.10903E+02
 1.29884E+02; 1.51696E-02; 8.93250E-02; 2.61963E+00; 1.10903E+02
 1.29984E+02; 1.53019E-02; 8.90456E-02; 2.61996E+00; 1.10903E+02
 1.30084E+02; 1.54774E-02; 8.87402E-02; 2.62016E+00; 1.10903E+02
 1.30184E+02; 1.56679E-02; 8.89914E-02; 2.62035E+00; 1.10903E+02
 1.30284E+02; 1.58761E-02; 8.96093E-02; 2.62063E+00; 1.10903E+02
 1.30384E+02; 1.60327E-02; 8.99032E-02; 2.62088E+00; 1.10903E+02
 1.30484E+02; 1.61281E-02; 8.99598E-02; 2.62129E+00; 1.10903E+02
 1.30584E+02; 1.62318E-02; 8.97139E-02; 2.62166E+00; 1.10903E+02
 1.30684E+02; 1.63537E-02; 8.91787E-02; 2.62200E+00; 1.10903E+02
 1.30784E+02; 1.64792E-02; 8.90245E-02; 2.62235E+00; 1.10903E+02
 1.30884E+02; 1.66286E-02; 8.92017E-02; 2.62260E+00; 1.10903E+02
 1.30984E+02; 1.67738E-02; 8.93742E-02; 2.62271E+00; 1.10903E+02
 1.31084E+02; 1.68929E-02; 8.95076E-02; 2.62290E+00; 1.10903E+02
 1.31184E+02; 1.70104E-02; 8.96499E-02; 2.62307E+00; 1.10903E+02
 1.31284E+02; 1.70746E-02; 8.98277E-02; 2.62332E+00; 1.10903E+02
 1.31384E+02; 1.71283E-02; 8.95077E-02; 2.62356E+00; 1.10903E+02
 1.31484E+02; 1.72053E-02; 8.88456E-02; 2.62390E+00; 1.10903E+02
 1.31584E+02; 1.72715E-02; 8.85935E-02; 2.62415E+00; 1.10903E+02
 1.31684E+02; 1.73077E-02; 8.88931E-02; 2.62429E+00; 1.10903E+02
 1.31784E+02; 1.73631E-02; 8.93288E-02; 2.62441E+00; 1.10903E+02
 1.31884E+02; 1.74309E-02; 8.99728E-02; 2.62449E+00; 1.10903E+02
 1.31984E+02; 1.74733E-02; 9.00711E-02; 2.62453E+00; 1.10903E+02
 1.32084E+02; 1.75110E-02; 8.97865E-02; 2.62427E+00; 1.10903E+02
 1.32184E+02; 1.75849E-02; 8.96178E-02; 2.62413E+00; 1.10903E+02
 1.32284E+02; 1.77209E-02; 8.96494E-02; 2.62430E+00; 1.10903E+02
 1.32384E+02; 1.77881E-02; 9.01401E-02; 2.62445E+00; 1.10903E+02
 1.32484E+02; 1.77906E-02; 9.08399E-02; 2.62438E+00; 1.10903E+02
 1.32584E+02; 1.78669E-02; 9.14322E-02; 2.62428E+00; 1.10903E+02
 1.32684E+02; 1.80597E-02; 9.18733E-02; 2.62434E+00; 1.10903E+02
 1.32784E+02; 1.81413E-02; 9.16651E-02; 2.62437E+00; 1.10903E+02
 1.32884E+02; 1.80578E-02; 9.10210E-02; 2.62431E+00; 1.10903E+02
 1.32984E+02; 1.79870E-02; 9.11879E-02; 2.62427E+00; 1.10903E+02
 1.33084E+02; 1.79419E-02; 9.21394E-02; 2.62415E+00; 1.10903E+02
 1.33184E+02; 1.79202E-02; 9.21552E-02; 2.62401E+00; 1.10903E+02
 1.33284E+02; 1.79392E-02; 9.13339E-02; 2.62385E+00; 1.10903E+02
 1.33384E+02; 1.79915E-02; 9.07599E-02; 2.62371E+00; 1.10903E+02
 1.33484E+02; 1.80291E-02; 9.06061E-02; 2.62368E+00; 1.10903E+02
 1.33584E+02; 1.80511E-02; 9.01609E-02; 2.62369E+00; 1.10903E+02
 1.33684E+02; 1.80567E-02; 8.95169E-02; 2.62380E+00; 1.10903E+02
 1.33784E+02; 1.80482E-02; 8.96300E-02; 2.62397E+00; 1.10903E+02
 1.33884E+02; 1.80137E-02; 9.02187E-02; 2.62393E+00; 1.10903E+02
 1.33984E+02; 1.80693E-02; 9.02088E-02; 2.62383E+00; 1.10903E+02
 1.34084E+02; 1.82282E-02; 8.96748E-02; 2.62377E+00; 1.10903E+02
 1.34184E+02; 1.83508E-02; 8.96929E-02; 2.62373E+00; 1.10903E+02
 1.34284E+02; 1.83851E-02; 9.02052E-02; 2.62367E+00; 1.10903E+02
 1.34384E+02; 1.83811E-02; 9.01104E-02; 2.62356E+00; 1.10903E+02
 1.34484E+02; 1.84043E-02; 8.95936E-02; 2.62368E+00; 1.10903E+02
 1.34584E+02; 1.84396E-02; 8.94064E-02; 2.62381E+00; 1.10903E+02
 1.34684E+02; 1.84884E-02; 8.96640E-02; 2.62373E+00; 1.10903E+02
 1.34784E+02; 1.85075E-02; 8.99237E-02; 2.62364E+00; 1.10903E+02
 1.34884E+02; 1.84850E-02; 9.01408E-02; 2.62354E+00; 1.10903E+02
 1.34984E+02; 1.84765E-02; 9.00937E-02; 2.62347E+00; 1.10903E+02
 1.35084E+02; 1.85086E-02; 8.96763E-02; 2.62372E+00; 1.10903E+02
 1.35184E+02; 1.85252E-02; 8.91010E-02; 2.62395E+00; 1.10903E+02
 1.35284E+02; 1.85137E-02; 8.84582E-02; 2.62419E+00; 1.10903E+02
 1.35384E+02; 1.85169E-02; 8.85981E-02; 2.62435E+00; 1.10903E+02
 1.35484E+02; 1.85343E-02; 8.94629E-02; 2.62439E+00; 1.10903E+02
 1.35584E+02; 1.85771E-02; 9.00707E-02; 2.62438E+00; 1.10903E+02
 1.35684E+02; 1.86566E-02; 9.03072E-02; 2.62445E+00; 1.10903E+02
 1.35784E+02; 1.87027E-02; 9.03304E-02; 2.62450E+00; 1.10903E+02
 1.35884E+02; 1.86782E-02; 8.99945E-02; 2.62425E+00; 1.10903E+02
 1.35984E+02; 1.86807E-02; 8.97995E-02; 2.62400E+00; 1.10903E+02
 1.36084E+02; 1.87578E-02; 8.97112E-02; 2.62410E+00; 1.10903E+02
 1.36184E+02; 1.88215E-02; 8.96859E-02; 2.62420E+00; 1.10903E+02
 1.36284E+02; 1.87935E-02; 8.96415E-02; 2.62423E+00; 1.10903E+02
 1.36384E+02; 1.87323E-02; 8.95560E-02; 2.62415E+00; 1.10903E+02
 1.36484E+02; 1.86729E-02; 8.94505E-02; 2.62395E+00; 1.10903E+02
 1.36584E+02; 1.86514E-02; 8.97041E-02; 2.62376E+00; 1.10903E+02
 1.36684E+02; 1.86465E-02; 9.02799E-02; 2.62385E+00; 1.10903E+02
 1.36784E+02; 1.86291E-02; 9.04250E-02; 2.62390E+00; 1.10903E+02
 1.36884E+02; 1.85864E-02; 9.02532E-02; 2.62367E+00; 1.10903E+02
 1.36984E+02; 1.85580E-02; 9.01195E-02; 2.62345E+00; 1.10903E+02
 1.37084E+02; 1.85561E-02; 8.99696E-02; 2.62334E+00; 1.10903E+02
 1.37184E+02; 1.86079E-02; 8.97895E-02; 2.62313E+00; 1.10903E+02
 1.37284E+02; 1.87121E-02; 8.93834E-02; 2.62282E+00; 1.10903E+02
 1.37384E+02; 1.87706E-02; 8.91137E-02; 2.62267E+00; 1.10903E+02
 1.37484E+02; 1.87456E-02; 8.87535E-02; 2.62246E+00; 1.10903E+02
 1.37584E+02; 1.86944E-02; 8.89618E-02; 2.62225E+00; 1.10903E+02
 1.37684E+02; 1.86322E-02; 8.95173E-02; 2.62223E+00; 1.10903E+02
 1.37784E+02; 1.86285E-02; 8.92911E-02; 2.62220E+00; 1.10903E+02
 1.37884E+02; 1.86957E-02; 8.85204E-02; 2.62220E+00; 1.10903E+02
 1.37984E+02; 1.87849E-02; 8.85543E-02; 2.62221E+00; 1.10903E+02
 1.38084E+02; 1.88519E-02; 8.91302E-02; 2.62230E+00; 1.10903E+02
 1.38184E+02; 1.88941E-02; 8.97396E-02; 2.62238E+00; 1.10903E+02
 1.38284E+02; 1.88673E-02; 9.01195E-02; 2.62231E+00; 1.10903E+02
 1.38384E+02; 1.88221E-02; 8.99106E-02; 2.62210E+00; 1.10903E+02
 1.38484E+02; 1.88066E-02; 8.92016E-02; 2.62153E+00; 1.10903E+02
 1.38584E+02; 1.88051E-02; 8.91306E-02; 2.62133E+00; 1.10903E+02
 1.38684E+02; 1.88295E-02; 8.95767E-02; 2.62154E+00; 1.10903E+02
 1.38784E+02; 1.88140E-02; 8.99768E-02; 2.62170E+00; 1.10903E+02
 1.38884E+02; 1.87333E-02; 8.99886E-02; 2.62166E+00; 1.10903E+02
 1.38984E+02; 1.86440E-02; 8.99730E-02; 2.62165E+00; 1.10903E+02
 1.39084E+02; 1.85596E-02; 8.99082E-02; 2.62144E+00; 1.10903E+02
 1.39184E+02; 1.84925E-02; 8.97039E-02; 2.62123E+00; 1.10903E+02
 1.39284E+02; 1.84551E-02; 8.92916E-02; 2.62113E+00; 1.10903E+02
 1.39384E+02; 1.84329E-02; 8.92410E-02; 2.62116E+00; 1.10903E+02
 1.39484E+02; 1.84126E-02; 8.96259E-02; 2.62109E+00; 1.10903E+02
 1.39584E+02; 1.84071E-02; 8.96660E-02; 2.62090E+00; 1.10903E+02
 1.39684E+02; 1.84283E-02; 8.94263E-02; 2.62080E+00; 1.10903E+02
 1.39784E+02; 1.84637E-02; 8.97746E-02; 2.62072E+00; 1.10903E+02
 1.39884E+02; 1.85260E-02; 9.06503E-02; 2.62094E+00; 1.10903E+02
 1.39984E+02; 1.85828E-02; 9.05800E-02; 2.62100E+00; 1.10903E+02
 1.40084E+02; 1.86197E-02; 8.95521E-02; 2.62075E+00; 1.10903E+02
 1.40184E+02; 1.86284E-02; 8.88533E-02; 2.62065E+00; 1.10903E+02
 1.40284E+02; 1.86111E-02; 8.87497E-02; 2.62087E+00; 1.10903E+02
 1.40384E+02; 1.87257E-02; 8.97072E-02; 2.62110E+00; 1.10903E+02
 1.40484E+02; 1.89839E-02; 9.14000E-02; 2.62111E+00; 1.10903E+02
 1.40584E+02; 1.91203E-02; 9.15522E-02; 2.62103E+00; 1.10903E+02
 1.40684E+02; 1.90886E-02; 9.04771E-02; 2.62091E+00; 1.10903E+02
 1.40784E+02; 1.90392E-02; 9.08390E-02; 2.62080E+00; 1.10903E+02
 1.40884E+02; 1.90086E-02; 9.26773E-02; 2.62072E+00; 1.10903E+02
 1.40984E+02; 1.89733E-02; 9.44795E-02; 2.62057E+00; 1.10903E+02
 1.41084E+02; 1.89654E-02; 9.59338E-02; 2.62024E+00; 1.10903E+02
 1.41184E+02; 1.88767E-02; 9.54984E-02; 2.61984E+00; 1.10903E+02
 1.41284E+02; 1.86724E-02; 9.34911E-02; 2.61978E+00; 1.10903E+02
 1.41384E+02; 1.83474E-02; 9.13426E-02; 2.61961E+00; 1.10903E+02
 1.41484E+02; 1.79141E-02; 8.92369E-02; 2.61941E+00; 1.10903E+02
 1.41584E+02; 1.75914E-02; 8.81658E-02; 2.61959E+00; 1.10903E+02
 1.41684E+02; 1.74213E-02; 8.78731E-02; 2.62014E+00; 1.10903E+02
 1.41784E+02; 1.74836E-02; 8.75424E-02; 2.62086E+00; 1.10903E+02
 1.41884E+02; 1.78388E-02; 8.69274E-02; 2.62156E+00; 1.10903E+02
 1.41984E+02; 1.78118E-02; 8.62481E-02; 2.62195E+00; 1.10903E+02
 1.42084E+02; 1.71543E-02; 8.58064E-02; 2.62232E+00; 1.10903E+02
 1.42184E+02; 1.64762E-02; 8.72252E-02; 2.62284E+00; 1.10903E+02
 1.42284E+02; 1.60067E-02; 9.00567E-02; 2.62314E+00; 1.10903E+02
 1.42384E+02; 1.66253E-02; 1.01548E-01; 2.62318E+00; 1.10903E+02
 1.42484E+02; 1.84835E-02; 1.19603E-01; 2.62308E+00; 1.10903E+02
 1.42584E+02; 1.94420E-02; 1.18842E-01; 2.62240E+00; 1.10903E+02
 1.42684E+02; 1.89670E-02; 1.01986E-01; 2.62158E+00; 1.10903E+02
 1.42784E+02; 1.88224E-02; 9.45282E-02; 2.62134E+00; 1.10903E+02
 1.42884E+02; 1.95281E-02; 9.72761E-02; 2.62141E+00; 1.10903E+02
 1.42984E+02; 2.00507E-02; 9.75638E-02; 2.62145E+00; 1.10903E+02
 1.43084E+02; 2.00142E-02; 9.42069E-02; 2.62139E+00; 1.10903E+02
 1.43184E+02; 1.99019E-02; 9.27990E-02; 2.62155E+00; 1.10903E+02
 1.43284E+02; 1.99423E-02; 9.33067E-02; 2.62192E+00; 1.10903E+02
 1.43384E+02; 2.00268E-02; 9.26410E-02; 2.62229E+00; 1.10903E+02
 1.43484E+02; 2.00862E-02; 9.08605E-02; 2.62249E+00; 1.10903E+02
 1.43584E+02; 2.05423E-02; 1.16436E-01; 2.62313E+00; 1.10903E+02
 1.43684E+02; 2.10826E-02; 1.57337E-01; 2.62274E+00; 1.10903E+02
 1.43784E+02; 2.12737E-02; 1.72749E-01; 2.62085E+00; 1.10903E+02
 1.43884E+02; 2.11960E-02; 1.56224E-01; 2.61904E+00; 1.10903E+02
 1.43984E+02; 2.09481E-02; 1.64878E-01; 2.61855E+00; 1.10903E+02
 1.44084E+02; 2.09168E-02; 2.04006E-01; 2.61878E+00; 1.10903E+02
 1.44184E+02; 2.19540E-02; 2.14733E-01; 2.61870E+00; 1.10903E+02
 1.44284E+02; 2.34753E-02; 1.95698E-01; 2.61889E+00; 1.10903E+02
 1.44384E+02; 2.40663E-02; 1.82118E-01; 2.62006E+00; 1.10903E+02
 1.44484E+02; 2.29835E-02; 1.73771E-01; 2.62184E+00; 1.10903E+02
 1.44584E+02; 2.05772E-02; 1.85988E-01; 2.62379E+00; 1.10903E+02
 1.44684E+02; 1.73949E-02; 2.00292E-01; 2.62534E+00; 1.10903E+02
 1.44784E+02; 1.32558E-02; 2.21024E-01; 2.62716E+00; 1.10903E+02
 1.44884E+02; 8.79971E-03; 2.35272E-01; 2.62906E+00; 1.10903E+02
 1.44984E+02; 5.42544E-03; 2.43692E-01; 2.63111E+00; 1.10903E+02
 1.45084E+02; 2.52407E-03; 2.56860E-01; 2.63285E+00; 1.10903E+02
 1.45184E+02; 8.55921E-04; 2.60180E-01; 2.63434E+00; 1.10903E+02
 1.45284E+02; 8.49799E-04; 2.45302E-01; 2.63697E+00; 1.10903E+02
 1.45384E+02; 9.12727E-04; 2.38803E-01; 2.64046E+00; 1.10903E+02
 1.45484E+02; 8.83222E-05; 2.35619E-01; 2.64360E+00; 1.10903E+02
 1.45584E+02;-5.74236E-04; 2.24334E-01; 2.64604E+00; 1.10903E+02
 1.45684E+02;-9.29934E-04; 2.27695E-01; 2.64790E+00; 1.10903E+02
 1.45784E+02;-8.78054E-04; 2.40440E-01; 2.64974E+00; 1.10903E+02
 1.45884E+02;-6.73141E-04; 2.64622E-01; 2.65161E+00; 1.10903E+02
 1.45984E+02;-5.38112E-04; 2.65824E-01; 2.65274E+00; 1.10903E+02
 1.46084E+02; 8.40828E-05; 2.37375E-01; 2.65358E+00; 1.10903E+02
 1.46184E+02; 6.58058E-04; 2.07986E-01; 2.65475E+00; 1.10903E+02
 1.46284E+02; 8.64724E-04; 1.80989E-01; 2.65607E+00; 1.10903E+02
 1.46384E+02; 1.82965E-03; 1.76184E-01; 2.65867E+00; 1.10903E+02
 1.46484E+02; 4.03720E-03; 1.91430E-01; 2.66239E+00; 1.10903E+02
 1.46584E+02; 7.65279E-03; 1.96957E-01; 2.66616E+00; 1.10903E+02
 1.46684E+02; 1.23166E-02; 1.89838E-01; 2.66993E+00; 1.10903E+02
 1.46784E+02; 1.63618E-02; 2.04717E-01; 2.67365E+00; 1.10903E+02
 1.46884E+02; 1.86507E-02; 2.44969E-01; 2.67627E+00; 1.10903E+02
 1.46984E+02; 1.80304E-02; 2.57514E-01; 2.67743E+00; 1.10903E+02
 1.47084E+02; 1.46284E-02; 2.45269E-01; 2.67854E+00; 1.10903E+02
 1.47184E+02; 1.10072E-02; 2.35127E-01; 2.68008E+00; 1.10903E+02
 1.47284E+02; 8.65649E-03; 2.30246E-01; 2.68161E+00; 1.10903E+02
 1.47384E+02; 8.38828E-03; 2.15368E-01; 2.68216E+00; 1.10903E+02
 1.47484E+02; 9.11963E-03; 2.05519E-01; 2.68218E+00; 1.10903E+02
 1.47584E+02; 8.91824E-03; 1.97520E-01; 2.68283E+00; 1.10903E+02
 1.47684E+02; 6.19501E-03; 2.11360E-01; 2.68578E+00; 1.10903E+02
 1.47784E+02; 2.70692E-03; 2.26618E-01; 2.69013E+00; 1.10903E+02
 1.47884E+02;-6.68805E-04; 2.56573E-01; 2.69336E+00; 1.10903E+02
 1.47984E+02;-2.00518E-03; 2.60600E-01; 2.69306E+00; 1.10903E+02
 1.48084E+02; 1.42566E-03; 2.25596E-01; 2.69148E+00; 1.10903E+02
 1.48184E+02; 6.42210E-03; 2.09894E-01; 2.69082E+00; 1.10903E+02
 1.48284E+02; 1.11047E-02; 2.11266E-01; 2.68994E+00; 1.10903E+02
 1.48384E+02; 1.74292E-02; 2.22620E-01; 2.69016E+00; 1.10903E+02
 1.48484E+02; 2.00528E-02; 2.36005E-01; 2.69196E+00; 1.10903E+02
 1.48584E+02; 2.25549E-02; 2.27296E-01; 2.69303E+00; 1.10903E+02
 1.48684E+02; 2.31622E-02; 2.13035E-01; 2.69250E+00; 1.10903E+02
 1.48784E+02; 2.05705E-02; 2.12572E-01; 2.69149E+00; 1.10903E+02
 1.48884E+02; 1.57909E-02; 2.24928E-01; 2.69025E+00; 1.10903E+02
 1.48984E+02; 1.18579E-02; 2.24298E-01; 2.68865E+00; 1.10903E+02
 1.49084E+02; 8.73747E-03; 2.07266E-01; 2.68655E+00; 1.10903E+02
 1.49184E+02; 7.09009E-03; 2.14882E-01; 2.68460E+00; 1.10903E+02
 1.49284E+02; 8.40321E-03; 2.43985E-01; 2.68360E+00; 1.10903E+02
 1.49384E+02; 1.13133E-02; 2.45655E-01; 2.68358E+00; 1.10903E+02
 1.49484E+02; 1.55027E-02; 2.44797E-01; 2.68490E+00; 1.10903E+02
 1.49584E+02; 1.84276E-02; 2.47210E-01; 2.68672E+00; 1.10903E+02
 1.49684E+02; 1.97274E-02; 2.50836E-01; 2.68795E+00; 1.10903E+02
 1.49784E+02; 2.15687E-02; 2.52163E-01; 2.68830E+00; 1.10903E+02
 1.49884E+02; 2.43932E-02; 2.52020E-01; 2.68882E+00; 1.10903E+02
 1.49984E+02; 2.50454E-02; 2.47449E-01; 2.68964E+00; 1.10903E+02
 1.50084E+02; 2.42708E-02; 2.54758E-01; 2.69014E+00; 1.10903E+02
 1.50184E+02; 2.43703E-02; 2.64113E-01; 2.69044E+00; 1.10903E+02
 1.50284E+02; 2.67784E-02; 3.11293E-01; 2.69220E+00; 1.10903E+02
 1.50384E+02; 2.35970E-02; 3.12107E-01; 2.69415E+00; 1.10903E+02
 1.50484E+02; 1.85455E-02; 3.08054E-01; 2.69492E+00; 1.10903E+02
 1.50584E+02; 1.51380E-02; 3.04399E-01; 2.69399E+00; 1.10903E+02
 1.50684E+02; 1.35656E-02; 3.04302E-01; 2.69289E+00; 1.10903E+02
 1.50784E+02; 1.21756E-02; 3.18789E-01; 2.69216E+00; 1.10903E+02
 1.50884E+02; 1.12845E-02; 3.28130E-01; 2.69213E+00; 1.10903E+02
 1.50984E+02; 8.97543E-03; 3.65799E-01; 2.69259E+00; 1.10903E+02
 1.51084E+02; 3.88334E-03; 4.00982E-01; 2.69134E+00; 1.10903E+02
 1.51184E+02;-8.63579E-04; 4.05303E-01; 2.68875E+00; 1.10903E+02
 1.51284E+02;-2.50551E-03; 3.89136E-01; 2.68813E+00; 1.10903E+02
 1.51384E+02;-8.05023E-04; 3.46227E-01; 2.68987E+00; 1.10903E+02
 1.51484E+02; 4.67670E-03; 2.75153E-01; 2.69177E+00; 1.10903E+02
 1.51584E+02; 8.08449E-03; 2.54546E-01; 2.69307E+00; 1.10903E+02
 1.51684E+02; 6.47451E-03; 2.52338E-01; 2.69401E+00; 1.10903E+02
 1.51784E+02; 5.30289E-03; 2.53165E-01; 2.69577E+00; 1.10903E+02
 1.51884E+02; 5.66581E-03; 2.53156E-01; 2.69858E+00; 1.10903E+02
 1.51984E+02; 6.59262E-03; 2.58764E-01; 2.70221E+00; 1.10903E+02
 1.52084E+02; 7.24697E-03; 2.82504E-01; 2.70628E+00; 1.10903E+02
 1.52184E+02; 9.20050E-03; 2.85584E-01; 2.71049E+00; 1.10903E+02
 1.52284E+02; 1.40709E-02; 2.64214E-01; 2.71366E+00; 1.10903E+02
 1.52384E+02; 2.07191E-02; 2.36978E-01; 2.71513E+00; 1.10903E+02
 1.52484E+02; 2.41808E-02; 2.10815E-01; 2.71735E+00; 1.10903E+02
 1.52584E+02; 2.35053E-02; 2.16553E-01; 2.72157E+00; 1.10903E+02
 1.52684E+02; 2.08046E-02; 2.37009E-01; 2.72544E+00; 1.10903E+02
 1.52784E+02; 1.97382E-02; 2.73360E-01; 2.72796E+00; 1.10903E+02
 1.52884E+02; 1.94858E-02; 3.10499E-01; 2.72986E+00; 1.10903E+02
 1.52984E+02; 1.12276E-02; 3.03886E-01; 2.73161E+00; 1.10903E+02
 1.53084E+02; 4.52168E-03; 2.72465E-01; 2.73405E+00; 1.10903E+02
 1.53184E+02;-1.90603E-03; 2.71618E-01; 2.73672E+00; 1.10903E+02
 1.53284E+02;-7.38662E-03; 3.46197E-01; 2.73934E+00; 1.10903E+02
 1.53384E+02;-1.11887E-02; 3.55286E-01; 2.74068E+00; 1.10903E+02
 1.53484E+02;-1.44171E-02; 3.30633E-01; 2.74121E+00; 1.10903E+02
 1.53584E+02;-1.54657E-02; 3.11913E-01; 2.74064E+00; 1.10903E+02
 1.53684E+02;-1.40878E-02; 2.89654E-01; 2.74060E+00; 1.10903E+02
 1.53784E+02;-1.31277E-02; 2.72602E-01; 2.74228E+00; 1.10903E+02
 1.53884E+02;-1.30585E-02; 2.64667E-01; 2.74498E+00; 1.10903E+02
 1.53984E+02;-1.37799E-02; 2.58897E-01; 2.74806E+00; 1.10903E+02
 1.54084E+02;-1.60518E-02; 2.53375E-01; 2.75092E+00; 1.10903E+02
 1.54184E+02;-1.38562E-02; 2.56039E-01; 2.75359E+00; 1.10903E+02
 1.54284E+02;-9.22987E-03; 2.83545E-01; 2.75630E+00; 1.10903E+02
 1.54384E+02;-3.49953E-03; 2.96701E-01; 2.75842E+00; 1.10903E+02
 1.54484E+02; 3.89809E-03; 2.87833E-01; 2.76037E+00; 1.10903E+02
 1.54584E+02; 1.11024E-02; 2.62406E-01; 2.76304E+00; 1.10903E+02
 1.54684E+02; 1.66310E-02; 2.37848E-01; 2.76649E+00; 1.10903E+02
 1.54784E+02; 1.98097E-02; 2.37494E-01; 2.77015E+00; 1.10903E+02
 1.54884E+02; 1.81258E-02; 2.51670E-01; 2.77275E+00; 1.10903E+02
 1.54984E+02; 1.52708E-02; 2.56702E-01; 2.77381E+00; 1.10903E+02
 1.55084E+02; 1.39574E-02; 2.47951E-01; 2.77439E+00; 1.10903E+02
 1.55184E+02; 1.70339E-02; 2.27738E-01; 2.77518E+00; 1.10903E+02
 1.55284E+02; 2.40764E-02; 2.12516E-01; 2.77664E+00; 1.10903E+02
